noise_type,noise_type_name,local_code,local_name,spot_code,spot_name,div_name,legl_sect_code,use_sect_name,tm_loc_x,tm_loc_y,latitude,longitude
EA,환경기준(자동),WJ,강원원주시,A04213001,대륙마트,강원특별자치도 원주시 개운동,가,종합병원지역,106960,526209,37.3304978771,127.9502035506
EA,환경기준(자동),WJ,강원원주시,A04213003,제일주유소,강원특별자치도 원주시 무실동,나,일반주거지역,105106,526729,37.3349972573,127.929216501
EA,환경기준(자동),WJ,강원원주시,A04213004,단구동,강원특별자치도 원주시 명륜동,나,일반주거지역,106518,526059,37.3290992063,127.9452323914
EM,환경기준(수동),WJ,강원원주시,A14213001,저수지입구,강원특별자치도 원주시 태장동,가,녹지지역,108395,530890,37.3728195,127.9658111
EM,환경기준(수동),WJ,강원원주시,A14213003,태장중학교 정문앞,강원특별자치도 원주시 태장동,가,녹지지역,107531,531134,37.3749261,127.9560274
EM,환경기준(수동),WJ,강원원주시,A14213004,마을입구,강원특별자치도 원주시 태장동,가,녹지지역,108485,530627,37.3704593,127.9668646
EM,환경기준(수동),WJ,강원원주시,A14213005,신호등앞,강원특별자치도 원주시 태장동,가,녹지지역,108058,530331,37.3677503,127.9620774
EM,환경기준(수동),WJ,강원원주시,A14213006,내안에병원,강원특별자치도 원주시 개운동,가,종합병원지역,106824,526592,37.3339455,127.9486255
EM,환경기준(수동),WJ,강원원주시,A14213007,김박사정비공업사,강원특별자치도 원주시 개운동,가,종합병원지역,106770,526481,37.3329322,127.9480261
EM,환경기준(수동),WJ,강원원주시,A14213008,놀이터 옆,강원특별자치도 원주시 개운동,가,종합병원지역,106980,526543,37.3335169,127.9503916
EM,환경기준(수동),WJ,강원원주시,A14213009,서원주 농협,강원특별자치도 원주시 개운동,가,종합병원지역,106815,526376,37.331991,127.9485446
EM,환경기준(수동),WJ,강원원주시,A14213010,삼성디지털프라자,강원특별자치도 원주시 개운동,가,종합병원지역,106765,526544,37.3335003,127.9479655
EM,환경기준(수동),WJ,강원원주시,A14213011,치악중학교 입구,강원특별자치도 원주시 단계동,가,학교지역,105225,528806,37.3537235,127.9302964
EM,환경기준(수동),WJ,강원원주시,A14213012,롯데아파트3동앞,강원특별자치도 원주시 단계동,가,학교지역,105099,528623,37.3520676,127.9288991
EM,환경기준(수동),WJ,강원원주시,A14213013,새롬마트앞,강원특별자치도 원주시 단계동,가,학교지역,105326,528691,37.3526963,127.9314575
EM,환경기준(수동),WJ,강원원주시,A14213014,동원타이어,강원특별자치도 원주시 단계동,가,학교지역,105518,528986,37.3553735,127.9335786
EM,환경기준(수동),WJ,강원원주시,A14213015,롯데아파트후문,강원특별자치도 원주시 단계동,가,학교지역,105099,528623,37.3520676,127.9288991
EM,환경기준(수동),WJ,강원원주시,A14213016,청구1차아파트 102동앞 파고라,강원특별자치도 원주시 명륜동,나,일반주거지역,105811,525721,37.3259898,127.9372997
EM,환경기준(수동),WJ,강원원주시,A14213017,청운학원,강원특별자치도 원주시 명륜동,나,일반주거지역,106122,525818,37.3268991,127.9407973
EM,환경기준(수동),WJ,강원원주시,A14213018,서강염소탕,강원특별자치도 원주시 명륜동,나,일반주거지역,106249,525885,37.3275185,127.9422266
EM,환경기준(수동),WJ,강원원주시,A14213019,동보노빌리티 203동앞 도로 소화전,강원특별자치도 원주시 명륜동,나,일반주거지역,106062,525495,37.3239849,127.940163
EM,환경기준(수동),WJ,강원원주시,A14213020,동보노빌리티 206동 앞,강원특별자치도 원주시 명륜동,나,일반주거지역,106062,525495,37.3239849,127.940163
EM,환경기준(수동),WJ,강원원주시,A14213021,주공301동(3단지)옆,강원특별자치도 원주시 무실동,나,일반주거지역,105086,526758,37.3352634,127.9289971
EM,환경기준(수동),WJ,강원원주시,A14213022,주공4단지 406동앞 소공원,강원특별자치도 원주시 무실동,나,일반주거지역,104840,526736,37.3350418,127.9262185
EM,환경기준(수동),WJ,강원원주시,A14213023,주공 102동 옆 공원,강원특별자치도 원주시 무실동,나,일반주거지역,104551,526675,37.3344546,127.9229617
EM,환경기준(수동),WJ,강원원주시,A14213024,주공310동 옆 19번국도변,강원특별자치도 원주시 무실동,나,일반주거지역,104926,526695,37.3346738,127.9271957
EM,환경기준(수동),WJ,강원원주시,A14213025,신협 앞,강원특별자치도 원주시 무실동,나,일반주거지역,104945,526929,37.3367897,127.9273797
EM,환경기준(수동),WJ,강원원주시,A14213026,유림장후문,강원특별자치도 원주시 학성동,다,상업지역,106599,528874,37.3544748,127.9457909
EM,환경기준(수동),WJ,강원원주시,A14213027,중앙동사무소앞,강원특별자치도 원주시 학성동,다,상업지역,106744,528689,37.3528217,127.9474519
EM,환경기준(수동),WJ,강원원주시,A14213029,수노래방 옆,강원특별자치도 원주시 학성동,다,상업지역,106518,528955,37.3551939,127.9448744
EM,환경기준(수동),WJ,강원원주시,A14213030,원주불교사,강원특별자치도 원주시 학성동,다,상업지역,106881,528655,37.35253,127.9490057
EM,환경기준(수동),WJ,강원원주시,A14213032,팡팡노래연습장,강원특별자치도 원주시 단계동,다,상업지역,105366,527951,37.3460337,127.931996
EM,환경기준(수동),WJ,강원원주시,A14213033,연세순풍산부인과 ,강원특별자치도 원주시 단계동,다,상업지역,105205,528007,37.3465256,127.9301739
EM,환경기준(수동),WJ,강원원주시,A14213034,오치드 호텔 앞,강원특별자치도 원주시 단계동,다,상업지역,105098,528028,37.3467062,127.9289685
EM,환경기준(수동),WJ,강원원주시,A14213035,메이드가요주점(구 비원노래방),강원특별자치도 원주시 단계동,다,상업지역,105295,528118,37.3475358,127.9311794
EM,환경기준(수동),WJ,강원원주시,A14213036,세종통신앞(정도케미칼),강원특별자치도 원주시 우산동,라,일반공업지역,106331,531339,37.3766567,127.9424562
EM,환경기준(수동),WJ,강원원주시,A14213037,한일드림주식회사 앞,강원특별자치도 원주시 우산동,라,일반공업지역,106258,531660,37.3795376,127.9416003
EM,환경기준(수동),WJ,강원원주시,A14213038,덕원레미콘앞,강원특별자치도 원주시 우산동,라,일반공업지역,106080,531646,37.3794004,127.9395889
EM,환경기준(수동),WJ,강원원주시,A14213039,삼양식품앞,강원특별자치도 원주시 우산동,라,일반공업지역,105710,531662,37.3795056,127.9354127
EM,환경기준(수동),WJ,강원원주시,A14213040,한일전기앞,강원특별자치도 원주시 우산동,라,일반공업지역,106354,531244,37.3757986,127.9427277
EM,환경기준(수동),WJ,강원원주시,A14213041,금광포란재 119동 맞은편,강원특별자치도 원주시 태장동,가,녹지지역,107774,529228,37.3577832,127.9590157
EM,환경기준(수동),WJ,강원원주시,A14213042,자유시장,강원특별자치도 원주시 학성동,다,상업지역,106843,528400,37.3502266,127.9486043
EM,환경기준(수동),WJ,강원원주시,A14213043,M스타빌딩 앞,강원특별자치도 원주시 단계동,다,상업지역,104912,528049,37.3468759,127.9268602
RV,도로교통소음(이동),WJ,강원원주시,F14213001,까치부동산,강원특별자치도 원주시 일산동,,주거지역,283534.45,427674.81,37.3473679004,127.9435300323
RV,도로교통소음(이동),WJ,강원원주시,F14213002,동원주새마을금고,강원특별자치도 원주시 명륜동,,주거지역,283554.45,426225.31,37.3343075457,127.9435928253
RV,도로교통소음(이동),WJ,강원원주시,F14213003,국민은행 앞,강원특별자치도 원주시 중앙동,,상업지역,107083,528383,37.34994397949577,127.95096008638662
RV,도로교통소음(이동),WJ,강원원주시,F14213004,원주보건소 옆,강원특별자치도 원주시 일산동,,상업지역,106663,528488,37.3511393933,127.9468161955
RV,도로교통소음(이동),WJ,강원원주시,F14213005,한일전기 앞,강원특별자치도 원주시 우산동,,공업지역,283337.454,430672.809,37.3743944925024,127.941643375031
RV,도로교통소음(이동),WJ,강원원주시,F14213006,농협사료,강원특별자치도 원주시 우산동,,공업지역,283101.45,431157.31,37.3787804532,127.9390335446
EA,환경기준(자동),CC,강원춘천시,A04211001,강원향군회관,강원특별자치도 춘천시 효자동,나,일반주거지역,89230,587300,37.8788468349,127.7409420068
EA,환경기준(자동),CC,강원춘천시,A04211003,도로교통안전공단,강원특별자치도 춘천시 우두동,나,준주거지역,88030,590047,37.9034485453,127.7268837694
EA,환경기준(자동),CC,강원춘천시,A04211004,강원대학교 후문 앞,강원특별자치도 춘천시 효자동,가,종합병원지역,89675,586576,37.8724,127.7461
EA,환경기준(자동),CC,강원춘천시,A25111001,춘천퇴계유통 뒷편,강원특별자치도 춘천시 삼천동,가,녹지지역,266507.41,583711.33,37.850824,127.755674
EA,환경기준(자동),CC,강원춘천시,A25111002,여의도순복음춘천교회 건너편,강원특별자치도 춘천시 삼천동,가,녹지지역,266424.83,583572.46,37.849579,127.754723
EA,환경기준(자동),CC,강원춘천시,A25111003,강원서부해바라기센터,강원특별자치도 춘천시 효자동,가,종합병원지역,265469.77,586273.94,37.873985,127.744117
EA,환경기준(자동),CC,강원춘천시,A25111004,CU 강대에이스점,강원특별자치도 춘천시 효자동,가,종합병원지역,265336.81,586299.52,37.874225,127.742608
EA,환경기준(자동),CC,강원춘천시,A25111005,  SKT 춘천중심국 측면,강원특별자치도 춘천시 온의동,가,학교지역,263367.37,584742.15,37.860334,127.720089
EA,환경기준(자동),CC,강원춘천시,A25111006,남춘천여자중학교 건너편,강원특별자치도 춘천시 온의동,가,학교지역,263343.84,584609.48,37.85914,127.71981
EA,환경기준(자동),CC,강원춘천시,A25111007,제원메디칼 측면,강원특별자치도 춘천시 후평동,나,일반주거지역,265277.2,587009.92,37.880629,127.741995
EA,환경기준(자동),CC,강원춘천시,A25111008,동양하우징,강원특별자치도 춘천시 교동,나,일반주거지역,265106.03,587048.74,37.880991,127.740053
EA,환경기준(자동),CC,강원춘천시,A25111009,장애인종합복지관 앞,강원특별자치도 춘천시 사농동,나,준주거지역,263981.58,590101.04,37.908568,127.727543
EA,환경기준(자동),CC,강원춘천시,A25111010,대한모터스 앞,강원특별자치도 춘천시 우두동,나,준주거지역,264283.85,589910.81,37.906833,127.730963
EA,환경기준(자동),CC,강원춘천시,A25111011,춘천하이테크타워,강원특별자치도 춘천시 후평동,라,일반공업지역,265637.07,587777.16,37.887515,127.746155
EA,환경기준(자동),CC,강원춘천시,A25111012,조은담배 앞,강원특별자치도 춘천시 후평동,라,일반공업지역,265921.48,587898.54,37.888588,127.749399
EA,환경기준(자동),CC,강원춘천시,A25111013,소양동행정복지센터 뒷편,강원특별자치도 춘천시 요선동,다,상업지역,263781.01,587187.41,37.882334,127.725005
EA,환경기준(자동),CC,강원춘천시,A25111014,테라스리빙3차,강원특별자치도 춘천시 요선동,다,상업지역,264075.67,587151.63,37.881991,127.728351
EA,환경기준(자동),CC,강원춘천시,A25111015,잇츠커피 측면,강원특별자치도 춘천시 동내면 거두리,가,전용주거지역,266708.01,584567.46,37.858522,127.758032
EA,환경기준(자동),CC,강원춘천시,A25111016,푸주옥거두점 맞은편,강원특별자치도 춘천시 동내면 거두리,가,전용주거지역,266839.46,584723.38,37.859917,127.75954
EA,환경기준(자동),CC,강원춘천시,A25111017,남부새싹공원,강원특별자치도 춘천시 퇴계동,나,일반주거지역,263846.88,584655.62,37.859521,127.72553
EA,환경기준(자동),CC,강원춘천시,A25111018,퇴계동 지역아동센터 맞은편,강원특별자치도 춘천시 퇴계동,나,일반주거지역,263812.16,584741.04,37.860293,127.725143
EA,환경기준(자동),CC,강원춘천시,A25111019,우리동네 전포차 앞,강원특별자치도 춘천시 석사동,나,일반주거지역,265232.42,584793.93,37.860669,127.741286
EA,환경기준(자동),CC,강원춘천시,A25111020,남한카센터 앞,강원특별자치도 춘천시 석사동,나,일반주거지역,265351.38,584907.99,37.861688,127.742648
EA,환경기준(자동),CC,강원춘천시,A25111021,지성공원,강원특별자치도 춘천시 효자동,나,일반주거지역,264837.61,585565.39,37.867647,127.736869
EA,환경기준(자동),CC,강원춘천시,A25111022,강원지방병무청 앞,강원특별자치도 춘천시 효자동,나,일반주거지역,264812.24,585356.72,37.865769,127.736562
EA,환경기준(자동),CC,강원춘천시,A25111023,스마일원룸,강원특별자치도 춘천시 효자동,나,일반주거지역,264651.39,585869.62,37.870401,127.73478
EA,환경기준(자동),CC,강원춘천시,A25111024,마천종합공구 앞,강원특별자치도 춘천시 효자동,나,일반주거지역,264490.7,585994.79,37.87154,127.732965
EA,환경기준(자동),CC,강원춘천시,A25111025,현대주류 앞,강원특별자치도 춘천시 동면 만천리,나,일반주거지역,267225.15,586791.86,37.878523,127.764115
EA,환경기준(자동),CC,강원춘천시,A25111026,계백수제갈비 앞,강원특별자치도 춘천시 동면 만천리,나,일반주거지역,267292.8,586965.36,37.880081,127.7649
EA,환경기준(자동),CC,강원춘천시,A25111027,춘천후평우미린 103동,강원특별자치도 춘천시 후평동,나,일반주거지역,266402.95,586691.82,37.877682,127.754761
EA,환경기준(자동),CC,강원춘천시,A25111028,후평주공5단지 419동 앞,강원특별자치도 춘천시 후평동,나,일반주거지역,266524.61,586596.89,37.876818,127.756135
EA,환경기준(자동),CC,강원춘천시,A25111029,동아아파트 104동 건너편,강원특별자치도 춘천시 후평동,나,일반주거지역,266319.99,586037,37.871789,127.753758
EA,환경기준(자동),CC,강원춘천시,A25111030,석사청구아파트 102동 옆,강원특별자치도 춘천시 석사동,나,일반주거지역,266237.55,585785.36,37.869528,127.752798
EA,환경기준(자동),CC,강원춘천시,A25111031,봄내족발 맞은편,강원특별자치도 춘천시 근화동,나,일반주거지역,263299,586156.91,37.873084,127.719436
EA,환경기준(자동),CC,강원춘천시,A25111032,춘천롯데캐슬 107동 앞,강원특별자치도 춘천시 근화동,나,일반주거지역,263405.25,586093.45,37.872505,127.720638
EA,환경기준(자동),CC,강원춘천시,A25111033,큰집장대박 맞은편,강원특별자치도 춘천시 후평동,나,일반주거지역,266163.8,587838.55,37.88803,127.752148
EA,환경기준(자동),CC,강원춘천시,A25111034,금강건재 앞,강원특별자치도 춘천시 후평동,나,일반주거지역,266185.12,587692.64,37.886714,127.752377
EA,환경기준(자동),CC,강원춘천시,A25111035,팔도해장국,강원특별자치도 춘천시 온의동,나,준주거지역,263370.82,585035.55,37.862977,127.720154
EA,환경기준(자동),CC,강원춘천시,A25111036,춘천축협 강남점,강원특별자치도 춘천시 온의동,나,준주거지역,263296.16,584960.27,37.862304,127.719299
EA,환경기준(자동),CC,강원춘천시,A25111037,봄내병원 뒷편,강원특별자치도 춘천시 운교동,다,상업지역,264570.86,586475.4,37.875864,127.733919
EA,환경기준(자동),CC,강원춘천시,A25111038,스카이타워,강원특별자치도 춘천시 운교동,다,상업지역,264481.27,586533.53,37.876394,127.732906
EA,환경기준(자동),CC,강원춘천시,A25111039,㈜보성 앞,강원특별자치도 춘천시 후평동,다,준공업지역,265988.96,588335.33,37.892518,127.750206
EA,환경기준(자동),CC,강원춘천시,A25111040,중앙자원 앞,강원특별자치도 춘천시 후평동,다,준공업지역,265880.19,588352.11,37.892677,127.748971
EA,환경기준(자동),SW,경기수원시,A04111001,화서동,경기도 수원시 장안구 정자동,가,학교지역,199335,520865,37.2870040484,126.9924966794
EA,환경기준(자동),SW,경기수원시,A04111003,신나무실,경기도 수원시 영통구 영통동,나,일반주거지역,205845,517017,37.252199649,127.0657724861
EA,환경기준(자동),SW,경기수원시,A04111004,한국은행 앞,경기도 수원시 장안구 영화동,나,준주거지역,200888,520855,37.2870848366,127.010139675
EA,환경기준(자동),SW,경기수원시,A04111006,호텔엠베서더 앞,경기도 수원시 권선구 권선동,다,상업지역,202725,517773,37.25914495,127.0307171345
EA,환경기준(자동),SW,경기수원시,A24111007,곡반정동 제1공용주차장 앞,경기도 수원시 권선구 곡반정동,나,일반주거지역,202885,515981,37.242995,127.032515
EA,환경기준(자동),SW,경기수원시,A24111008,수원아이파크시티 2단지 212동 건너편,경기도 수원시 권선구 곡반정동,나,일반주거지역,202789,516155,37.244563,127.031434
EA,환경기준(자동),SW,경기수원시,A24111009,차서한의원 건너편,경기도 수원시 권선구 금곡동,나,일반주거지역,194515,518884,37.269145,126.938171
EA,환경기준(자동),SW,경기수원시,A24111010,와이시트 609동 건너편,경기도 수원시 권선구 금곡동,나,일반주거지역,194546,518960,37.269828,126.938514
EA,환경기준(자동),SW,경기수원시,A24111011,차가배 앞,경기도 수원시 권선구 호매실동,가,전용주거지역,194809,518222,37.263177,126.941479
EA,환경기준(자동),SW,경기수원시,A24111012,칠보산 하나로축산 건너편,경기도 수원시 권선구 호매실동,가,전용주거지역,194904,518240,37.26334,126.94255
EA,환경기준(자동),SW,경기수원시,A24111013,수원금호초등학교 앞,경기도 수원시 권선구 호매실동,가,학교지역,195919,518469,37.265408,126.953992
EA,환경기준(자동),SW,경기수원시,A24111014,수원은혜교회 건너편,경기도 수원시 권선구 호매실동,가,학교지역,195917,518507,37.265751,126.953969
EA,환경기준(자동),SW,경기수원시,A24111015,삼성미래기술캠퍼스 건너편,경기도 수원시 영통구 매탄동,라,일반공업지역,204680,517086,37.252944,127.052753
EA,환경기준(자동),SW,경기수원시,A24111016,협신빌라 건너편,경기도 수원시 영통구 매탄동,나,일반주거지역,204227,518419,37.264957,127.047654
EA,환경기준(자동),SW,경기수원시,A24111017,광명수산 건너편,경기도 수원시 영통구 매탄동,나,일반주거지역,204136,518306,37.263939,127.046627
EA,환경기준(자동),SW,경기수원시,A24111018,어울림에프 앞,경기도 수원시 영통구 매탄동,라,일반공업지역,205662,517320,37.255047,127.063823
EA,환경기준(자동),SW,경기수원시,A24111020,물빛어린이공원,경기도 수원시 영통구 신동,나,일반주거지역,203713,516349,37.246308,127.041849
EA,환경기준(자동),SW,경기수원시,A24111021,유닥터 앞,경기도 수원시 영통구 신동,라,일반공업지역,204710,516564,37.248241,127.053087
EA,환경기준(자동),SW,경기수원시,A24111022,스미어 앞,경기도 수원시 영통구 신동,나,일반주거지역,203911,516363,37.246433,127.044081
EA,환경기준(자동),SW,경기수원시,A24111023,수원종합폐차장 옆,경기도 수원시 영통구 원천동,라,일반공업지역,205669,517630,37.25784,127.063905
EA,환경기준(자동),SW,경기수원시,A24111024,신미주APT정문 앞,경기도 수원시 장안구 연무동,가,녹지지역,202695,522307,37.299995,127.030397
EA,환경기준(자동),SW,경기수원시,A24111025,해맑음빌리지 측면,경기도 수원시 장안구 영화동,나,준주거지역,200655,520889,37.287222,127.007386
EA,환경기준(자동),SW,경기수원시,A24111026,화서신협 화서문 지점 앞,경기도 수원시 장안구 영화동,나,준주거지역,200619,520761,37.286069,127.00698
EA,환경기준(자동),SW,경기수원시,A24111028,조원대간타워 앞,경기도 수원시 장안구 조원동,나,일반주거지역,201118,522877,37.305134,127.012611
EA,환경기준(자동),SW,경기수원시,A24111029,광교보리밥,경기도 수원시 장안구 하광교동,가,녹지지역,201672,524129,37.316415,127.018863
EA,환경기준(자동),SW,경기수원시,A24111030,한국관 앞,경기도 수원시 팔달구 인계동,다,상업지역,202929,517687,37.258367,127.033018
EA,환경기준(자동),SW,경기수원시,A24111031,건강보험공단 앞,경기도 수원시 팔달구 인계동,다,상업지역,202901,517615,37.257718,127.032702
EA,환경기준(자동),SW,경기수원시,A24111032,가톨릭대 성빈센터병원 건너편,경기도 수원시 팔달구 인계동,가,종합병원지역,202550,519859,37.277938,127.028753
EA,환경기준(자동),SW,경기수원시,A24111033,원일베내스트 앞,경기도 수원시 팔달구 인계동,다,상업지역,203143,518354,37.264376,127.035433
EA,환경기준(자동),SW,경기수원시,A24111034,하나은행 수원금융센터 건너편,경기도 수원시 팔달구 인계동,다,상업지역,202843,518170,37.262719,127.03205
EA,환경기준(자동),SW,경기수원시,A24111035,지동성당 뒷편,경기도 수원시 팔달구 지동,가,종합병원지역,202561,520010,37.279299,127.028877
EA,환경기준(자동),SW,경기수원시,A24111036,숙지고등학교 정문 앞,경기도 수원시 팔달구 화서동,가,학교지역,199470,520408,37.282888,126.994024
EA,환경기준(자동),SW,경기수원시,A24111037,서부주유소 앞,경기도 수원시 팔달구 화서동,가,학교지역,199384,520868,37.287033,126.993053
EA,환경기준(자동),SW,경기수원시,A24111038,한일주택 나동 앞,경기도 수원시 장안구 조원동,나,일반주거지역,201183,522699,37.30353,127.013344
EM,환경기준(수동),SW,경기수원시,B14111001,송죽동417-4,경기도 수원시 장안구 송죽동,가,녹지지역,199924.05,421708.414,37.29734874234072,126.99992172387975
EM,환경기준(수동),SW,경기수원시,B14111002,정자동 307,경기도 수원시 장안구 정자동,가,녹지지역,199456.085,421829.353,37.29843818860089,126.9946436861375
EM,환경기준(수동),SW,경기수원시,B14111003,송죽동417-34,경기도 수원시 장안구 송죽동,가,녹지지역,200357.082,422057.356,37.300492837169735,127.00480573517751
EM,환경기준(수동),SW,경기수원시,B14111004,정자동 286,경기도 수원시 장안구 정자동,가,녹지지역,199539.084,422029.353,37.30024030562657,126.99557961732374
EM,환경기준(수동),SW,경기수원시,B14111005,정자동295-2,경기도 수원시 장안구 정자동,가,녹지지역,199726.084,422179.354,37.30159197152056,126.99768867985934
EM,환경기준(수동),SW,경기수원시,B14111006,원천동 1번지(1),경기도 수원시 영통구 원천동,가,종합병원지역,204113.99,419502.49,37.2774644119,127.0471661306
EM,환경기준(수동),SW,경기수원시,B14111007,원천동 1번지(2),경기도 수원시 영통구 원천동,가,종합병원지역,204050.99,419802.49,37.2801677633,127.0464573529
EM,환경기준(수동),SW,경기수원시,B14111008,원천동 1번지(3),경기도 수원시 영통구 원천동,가,종합병원지역,204326.03,419707.43,37.2793100735,127.0495580679
EM,환경기준(수동),SW,경기수원시,B14111009,원천동 1번지(4),경기도 수원시 영통구 원천동,가,종합병원지역,204141.99,419559.49,37.2779778874,127.0474821606
EM,환경기준(수동),SW,경기수원시,B14111010,원천동 1번지(5),경기도 수원시 영통구 원천동,가,종합병원지역,203998.99,419646.49,37.2787623899,127.0458702078
EM,환경기준(수동),SW,경기수원시,B14111011,권선동1063-1(1),경기도 수원시 권선구 권선동,가,학교지역,201939.07,416950.39,37.2544757385,127.0226368491
EM,환경기준(수동),SW,경기수원시,B14111012,권선동1063-1(2),경기도 수원시 권선구 권선동,가,학교지역,201962.07,417007.39,37.2549892938,127.022896246
EM,환경기준(수동),SW,경기수원시,B14111013,권선동1063-1(3),경기도 수원시 권선구 권선동,가,학교지역,202017.07,416987.39,37.2548089775,127.0235161537
EM,환경기준(수동),SW,경기수원시,B14111014,권선동 1063(1),경기도 수원시 권선구 권선동,가,학교지역,201980.07,417048.39,37.2553586703,127.0230992495
EM,환경기준(수동),SW,경기수원시,B14111015,권선동 1063(2),경기도 수원시 권선구 권선동,가,학교지역,202175.07,416987.39,37.2548086539,127.0252971682
EM,환경기준(수동),SW,경기수원시,B14111016,파장동 410,경기도 수원시 장안구 파장동,나,일반주거지역,200038.58,423109.348,37.309971583446405,127.00121316465187
EM,환경기준(수동),SW,경기수원시,B14111017,파장동200-2,경기도 수원시 장안구 파장동,나,일반주거지역,199433.082,423313.349,37.31180939096867,126.99438273120172
EM,환경기준(수동),SW,경기수원시,B14111018,파장동213-7,경기도 수원시 장안구 파장동,나,일반주거지역,199385.083,423242.349,37.311169621384565,126.99384135109871
EM,환경기준(수동),SW,경기수원시,B14111019,파장동469-1,경기도 수원시 장안구 파장동,나,일반주거지역,199730.081,422967.363,37.30869215631528,126.99773327999178
EM,환경기준(수동),SW,경기수원시,B14111020,파장동211-2,경기도 수원시 장안구 파장동,나,일반주거지역,199369.082,423097.349,37.30986312324569,126.99366101596169
EM,환경기준(수동),SW,경기수원시,B14111021,지동404-3,경기도 수원시 팔달구 지동,다,상업지역,202184.07,419655.37,37.278848080100374,127.02540575597534
EM,환경기준(수동),SW,경기수원시,B14111022,지동 92-1,경기도 수원시 팔달구 지동,다,상업지역,201704.07,419571.368,37.27809210193033,127.0199932508047
EM,환경기준(수동),SW,경기수원시,B14111023,팔달로1가78,경기도 수원시 팔달구 팔달로1가,다,상업지역,201312.072,419788.37,37.280047908992515,127.01557357384168
EM,환경기준(수동),SW,경기수원시,B14111024,신풍동 281,경기도 수원시 팔달구 신풍동,다,상업지역,201376.073,420071.367,37.282597724918546,127.01629568902852
EM,환경기준(수동),SW,경기수원시,B14111025,팔달로3가83,경기도 수원시 팔달구 팔달로3가,다,상업지역,201402.072,419337.372,37.27598416193721,127.01658766653937
EM,환경기준(수동),SW,경기수원시,B14111026,원천동 235-5,경기도 수원시 영통구 원천동,라,일반공업지역,205308.047,418371.378,37.26726695194693,127.06062192813758
EM,환경기준(수동),SW,경기수원시,B14111027,원천동 240-1,경기도 수원시 영통구 원천동,라,일반공업지역,205837.05,418166.38,37.26541678026093,127.06658427486522
EM,환경기준(수동),SW,경기수원시,B14111028,원천동 345-2,경기도 수원시 영통구 원천동,라,일반공업지역,205862.05,418109.38,37.26243747,127.06293626
EM,환경기준(수동),SW,경기수원시,B14111029,원천동 326-5,경기도 수원시 영통구 원천동,라,일반공업지역,205734.05,418285.38,37.26648961832421,127.0654239753061
EM,환경기준(수동),SW,경기수원시,B14111030,원천동 333-3,경기도 수원시 영통구 원천동,라,일반공업지역,205626.047,418238.379,37.26606678583887,127.06420607037315
EA,환경기준(자동),CW,경남창원시,A04812001,반송중학교 앞,경상남도 창원시 성산구 반림동,가,학교지역,170347,293316,35.2359101209,128.6742353439
EA,환경기준(자동),CW,경남창원시,A04812002,삼화페인트 앞,경상남도 창원시 의창구 명서동,가,전용주거지역,167993,294699,35.2483352956,128.6483573914
EA,환경기준(자동),CW,경남창원시,A04812003,창원병원 정문,경상남도 창원시 성산구 중앙동,가,종합병원지역,169952,291351,35.218189125,128.6699652672
EM,환경기준(수동),CW,경남창원시,A14811001,허인숙한복백화점(구. 현대보육사앞),경상남도 창원시 의창구 명서동,가,전용주거지역,167964,294241,35.2441793,128.6480268
EM,환경기준(수동),CW,경남창원시,A14811002,명서1동사무소,경상남도 창원시 의창구 명서동,가,전용주거지역,168063,294422,35.2458139,128.6491035
EM,환경기준(수동),CW,경남창원시,A14811003,경동나비엔 옆(구. 천연슈퍼뒤),경상남도 창원시 의창구 명서동,가,전용주거지역,167807,294508,35.2465822,128.6462847
EM,환경기준(수동),CW,경남창원시,A14811004,경남천막사 앞(구. 양양택배앞),경상남도 창원시 의창구 명서동,가,전용주거지역,167772,294379,35.2454158,128.6459096
EM,환경기준(수동),CW,경남창원시,A14811005,삼화페인트앞,경상남도 창원시 의창구 명서동,가,전용주거지역,168029,294693,35.2482524,128.6487244
EM,환경기준(수동),CW,경남창원시,A14811006,개인주택앞(153-8),경상남도 창원시 성산구 중앙동,가,종합병원지역,170139,291520,35.2197159,128.6720226
EM,환경기준(수동),CW,경남창원시,A14811007,HP서비스 창원센터 앞,경상남도 창원시 성산구 중앙동,가,종합병원지역,170286,291632,35.2207302,128.6736249
EM,환경기준(수동),CW,경남창원시,A14811009,창원병원정문,경상남도 창원시 성산구 중앙동,가,종합병원지역,170111,291472,35.2192875,128.6717173
EM,환경기준(수동),CW,경남창원시,A14811010,창원병원측문,경상남도 창원시 성산구 중앙동,가,종합병원지역,170111,291472,35.2192875,128.6717173
EM,환경기준(수동),CW,경남창원시,A14811011,반송여중 정문,경상남도 창원시 성산구 반림동,가,학교지역,170362,293302,35.2357877,128.6744062
EM,환경기준(수동),CW,경남창원시,A14811012,용호초등학교후문,경상남도 창원시 의창구 용호동,가,학교지역,170552,293136,35.2342988,128.6764956
EM,환경기준(수동),CW,경남창원시,A14811013,무학아파트관리사무소,경상남도 창원시 의창구 용호동,가,학교지역,170763,293216,35.2350237,128.6788172
EM,환경기준(수동),CW,경남창원시,A14811014,반송중학교,경상남도 창원시 성산구 반림동,가,학교지역,170362,293302,35.2357877,128.6744062
EM,환경기준(수동),CW,경남창원시,A14811015,반송여중후문,경상남도 창원시 성산구 반림동,가,학교지역,170036,293020,35.2332414,128.6708391
EM,환경기준(수동),CW,경남창원시,A14811019,국방품질연구소 정문,경상남도 창원시 성산구 삼정자동,나,일반주거지역,173694,288892,35.1961345,128.7111514
EM,환경기준(수동),CW,경남창원시,A14811020,경상대학교병원 후문,경상남도 창원시 성산구 삼정자동,나,일반주거지역,173499,289309,35.1998869,128.7090013
EM,환경기준(수동),CW,경남창원시,A14811021,평화상가정문,경상남도 창원시 성산구 중앙동,다,상업지역,170858,292080,35.2247889,128.6799024
EM,환경기준(수동),CW,경남창원시,A14811022,중앙상가호텔 앞(구. 캔버라약국앞),경상남도 창원시 성산구 중앙동,다,상업지역,170551,291648,35.2208882,128.6765384
EM,환경기준(수동),CW,경남창원시,A14811023,화신상가앞,경상남도 창원시 성산구 상남동,다,상업지역,170936,291758,35.221893,128.6807653
EM,환경기준(수동),CW,경남창원시,A14811024,"을수네갈비살 앞(구, SK텔레콤)",경상남도 창원시 성산구 중앙동,다,상업지역,170632,291932,35.2234443,128.6774256
EM,환경기준(수동),CW,경남창원시,A14811025,외환은행앞,경상남도 창원시 성산구 상남동,다,상업지역,170563,291398,35.2186332,128.6766788
EM,환경기준(수동),CW,경남창원시,A14811026,㈜유니온 정문,경상남도 창원시 의창구 반계동,다,준공업지역,166102,293847,35.2405625,128.6275875
EM,환경기준(수동),CW,경남창원시,A14811027,성화기계 정문,경상남도 창원시 의창구 반계동,다,준공업지역,165845,294077,35.2426283,128.6247506
EM,환경기준(수동),CW,경남창원시,A14811028,경성엠티 정문,경상남도 창원시 의창구 반계동,다,준공업지역,165922,293844,35.240535,128.6256097
EM,환경기준(수동),CW,경남창원시,A14811029,화신케미칼 맞은편(구. 이엔테크 정문),경상남도 창원시 의창구 반계동,다,준공업지역,166515,293434,35.2368603,128.6321381
EM,환경기준(수동),CW,경남창원시,A14811030,(주)영진테크 정문,경상남도 창원시 의창구 반계동,다,준공업지역,165669,294014,35.2420595,128.6228169
EM,환경기준(수동),CW,경남창원시,A14811031,극동목재 정문,경상남도 창원시 의창구 반계동,라,일반공업지역,164087,295020,35.2510695,128.605396
EM,환경기준(수동),CW,경남창원시,A14811032,한국마이콤 후문,경상남도 창원시 의창구 반계동,라,일반공업지역,164559,294642,35.2476749,128.6106024
EM,환경기준(수동),CW,경남창원시,A14811033,마산도금조합 정문,경상남도 창원시 의창구 반계동,라,일반공업지역,164372,294652,35.2477654,128.6085388
EM,환경기준(수동),CW,경남창원시,A14811034,KPE 정문,경상남도 창원시 의창구 반계동,라,일반공업지역,164959,294725,35.2484366,128.6149899
EM,환경기준(수동),CW,경남창원시,A14811035,한국열처리 정문,경상남도 창원시 의창구 반계동,라,일반공업지역,164331,295124,35.2520163,128.6080734
EM,환경기준(수동),CW,경남창원시,A14812036,창원시견인보관소,경상남도 창원시,가,종합병원지역,170342,291443,35.2190363,128.674249
EM,환경기준(수동),CW,경남창원시,A14812037,창원벨엘교회(아씨머리방),경상남도 창원시 성산구,나,일반주거지역,173948,289646,35.2029356,128.7139182
EM,환경기준(수동),CW,경남창원시,A14812038,프리빌리지2차209동(일성슈퍼),경상남도 창원시 성산구,나,일반주거지역,174181,288769,35.1950406,128.7164971
EM,환경기준(수동),CW,경남창원시,A14812039,유니온빌리지101동(용문암 입구),경상남도 창원시 성산구,나,일반주거지역,174050,289255,35.1994139,128.715052
EM,환경기준(수동),CW,경남창원시,B14811001,동원료얄듀크아파트 106동 앞,경상남도 창원시 성산구 신촌동,가,전용주거지역,348214.84,190020.04,35.1984901814,128.6282826451
EM,환경기준(수동),CW,경남창원시,B14811002,디에스아이존빌아파트 102동 앞,경상남도 창원시 성산구 신촌동,가,전용주거지역,348021.91,189814,35.1966622503,128.6261280695
EM,환경기준(수동),CW,경남창원시,B14811003,문창팀버빌리지 102동 앞,경상남도 창원시 성산구 신촌동,가,전용주거지역,348211.85,189882.03,35.1972472207,128.6282250832
EM,환경기준(수동),CW,경남창원시,B14811004,양곡유신(아)나동106호 앞,경상남도 창원시 성산구 신촌동,가,전용주거지역,348126.78,190729.65,35.2048967047,128.6274434082
EM,환경기준(수동),CW,경남창원시,B14811005,양곡상가(아)나동106호 앞,경상남도 창원시 성산구 신촌동,가,전용주거지역,348239.28,190347.43,35.2014363095,128.6286096442
EM,환경기준(수동),CW,경남창원시,B14811006,창원경일고교 국기게양대앞,경상남도 창원시 성산구 중앙동,가,학교지역,351132.06,193144.59,35.2262073038,128.6608752481
EM,환경기준(수동),CW,경남창원시,B14811007,한국폴리텍대학 창원캠퍼스 산학협력단입구,경상남도 창원시 성산구 중앙동,가,학교지역,351878.09,192936.2,35.2242172644,128.6690282479
EM,환경기준(수동),CW,경남창원시,B14811008,창원기계공고 운동장 사열대,경상남도 창원시 성산구 중앙동,가,학교지역,351529.09,192872.61,35.2236970837,128.6651845879
EM,환경기준(수동),CW,경남창원시,B14811009,창원여자고등학교 앞,경상남도 창원시 성산구 중앙동,가,학교지역,351007.64,193182.07,35.2265637209,128.6595160001
EM,환경기준(수동),CW,경남창원시,B14811010,경원중학교 정문 앞,경상남도 창원시 성산구 중앙동,가,학교지역,351282.07,192994.6,35.2248333804,128.6624948637
EM,환경기준(수동),CW,경남창원시,B14811011,토월성원APT 305동 경비실 앞,경상남도 창원시 성산구 상남동,나,일반주거지역,353888.86,192132.94,35.2166743358,128.6909556288
EM,환경기준(수동),CW,경남창원시,B14811012,토월성원APT 205동 경비실 앞,경상남도 창원시 성산구 상남동,나,일반주거지역,354126.96,191993.9,35.2153851976,128.6935436724
EM,환경기준(수동),CW,경남창원시,B14811013,대방그린빌APT 관리사무소 앞,경상남도 창원시 성산구 대방동,나,일반주거지역,355346.68,191974.89,35.2150261672,128.7069304997
EM,환경기준(수동),CW,경남창원시,B14811014,토월성원APT 202동 옆 도로,경상남도 창원시 성산구 상남동,나,일반주거지역,354241.38,192059.33,35.2159571873,128.694812073
EM,환경기준(수동),CW,경남창원시,B14811015,대방대동APT 101동 옆 ,경상남도 창원시 성산구 대방동,나,일반주거지역,355617.36,191666.49,35.2122058177,128.7098439055
EM,환경기준(수동),CW,경남창원시,B14811016,지귀동 새마을금고 후문 앞,경상남도 창원시 의창구 봉곡동,나,준주거지역,350963.32,195285.68,35.2455231265,128.6594147133
EM,환경기준(수동),CW,경남창원시,B14811017,동진카써비스 건너편,경상남도 창원시 성산구 반지동,나,준주거지역,169.22,193.54,35.2406899043,128.662484046
EM,환경기준(수동),CW,경남창원시,B14811018,무량탕 앞,경상남도 창원시 의창구 용호동,나,준주거지역,352336.62,193264.4,35.2271048566,128.6741233385
EM,환경기준(수동),CW,경남창원시,B14811019,이레유치원 건너편,경상남도 창원시 성산구 가음정동,나,준주거지역,354627.54,191121.39,35.20744745,128.698875627
EM,환경기준(수동),CW,경남창원시,B14811020,가음정동민원센터 옆 도로,경상남도 창원시 성산구 가음정동,나,준주거지역,354485.16,191213.9,35.2083028453,128.6973300036
EM,환경기준(수동),CW,경남창원시,B14811021,중앙동 성원오피스텔상가 표지석 앞,경상남도 창원시 성산구 중앙동,다,상업지역,352520.21,192732.76,35.2222871279,128.67604076
EM,환경기준(수동),CW,경남창원시,B14811022,중앙동 농협남지점 앞,경상남도 창원시 성산구 중앙동,다,상업지역,352636.14,192168.81,35.2171885775,128.6772092211
EM,환경기준(수동),CW,경남창원시,B14811023,용호동치안센터 앞,경상남도 창원시 의창구 용호동,다,상업지역,352871.72,193631.87,35.2303343225,128.6800668372
EM,환경기준(수동),CW,경남창원시,B14811024,중앙동 창원호텔 정문 앞,경상남도 창원시 성산구 중앙동,다,상업지역,352390.83,192554.31,35.220699002,128.6745873202
EM,환경기준(수동),CW,경남창원시,B14811025,용호동 창원시청 정문 앞 ,경상남도 창원시 의창구 용호동,다,상업지역,353039.16,193319.87,35.2274978405,128.6818474516
EM,환경기준(수동),CW,경남창원시,B14811026,효성사원아파트 11동 놀이터,경상남도 창원시 성산구 내동,다,준공업지역,351422.75,192490.58,35.2202711001,128.6639469061
EM,환경기준(수동),CW,경남창원시,B14811027,효성사원아파트 14동 101동 옆,경상남도 창원시 성산구 내동,다,준공업지역,351137.83,192657.62,35.2218190211,128.660849332
EM,환경기준(수동),CW,경남창원시,B14811028,SNT사원아파트관리실 옆 주차장,경상남도 창원시 성산구 내동,다,준공업지역,351749.77,192342.49,35.2188875435,128.6675100247
EM,환경기준(수동),CW,경남창원시,B14811029,삼미사원아파트 A동 경비실 앞,경상남도 창원시 성산구 내동,다,준공업지역,351634.78,192436.61,35.2197529258,128.6662649147
EM,환경기준(수동),CW,경남창원시,B14811030,내동민원센터 정문 앞,경상남도 창원시 성산구 내동,다,준공업지역,351907.84,192202.63,35.2176036349,128.6692197576
EM,환경기준(수동),CW,경남창원시,B14811031,SNT 다이내믹스 정문,경상남도 창원시 성산구 외동,라,일반공업지역,352445.39,191242.64,35.2088731147,128.6749439742
EM,환경기준(수동),CW,경남창원시,B14811032,성산동 동환산업 정문(남문),경상남도 창원시 성산구 외동,라,일반공업지역,352583.23,190322.71,35.2005639669,128.6762869651
EM,환경기준(수동),CW,경남창원시,B14811033,성주동 한국특수전지 앞,경상남도 창원시 성산구 외동,라,일반공업지역,353831.67,189773.27,35.1954236126,128.6898879404
EM,환경기준(수동),CW,경남창원시,B14811034,외동 성산패총 정문 앞,경상남도 창원시 성산구 외동,라,일반공업지역,352968.07,191012.29,35.2067183762,128.680638925
EM,환경기준(수동),CW,경남창원시,B14811035,현대위아(주)정동공장 정문 앞,경상남도 창원시 성산구 외동,라,일반공업지역,352742.49,190722.23,35.2041393345,128.6781090118
EM,환경기준(수동),CW,경남창원시,B14816001,중앙동3가 마산의료원 후문,경상남도 창원시 마산합포구 중앙동1가,가,종합병원지역,342548.71,190004.91,35.1991729116,128.5660850524
EM,환경기준(수동),CW,경남창원시,B14816002,마산의료원 본관 정문,경상남도 창원시 마산합포구 중앙동1가,가,종합병원지역,342526.69,189958.33,35.198756326,128.5658353446
EM,환경기준(수동),CW,경남창원시,B14816003,중앙동 제일종합병원 후문,경상남도 창원시 마산합포구 중앙동1가,가,종합병원지역,342773.22,189983.85,35.1989512598,128.5685457727
EM,환경기준(수동),CW,경남창원시,B14816004,중앙동3가 마산의료원 입구,경상남도 창원시 마산합포구 중앙동1가,가,종합병원지역,342647.71,189983.34,35.19896446,128.5671680031
EM,환경기준(수동),CW,경남창원시,B14816005,중앙동 제일종합병원 입구,경상남도 창원시 마산합포구 중앙동1가,가,종합병원지역,342787.22,189939.84,35.1985527718,128.5686918247
EM,환경기준(수동),CW,경남창원시,B14816006,완월동 월성초등학교,경상남도 창원시 마산합포구 완월동,가,학교지역,341796.25,189728.94,35.1967927123,128.5577779989
EM,환경기준(수동),CW,경남창원시,B14816007,완월동 월포초등학교,경상남도 창원시 마산합포구 완월동,가,학교지역,341842.93,188138.2,35.1824533314,128.5580172042
EM,환경기준(수동),CW,경남창원시,B14816008,월영동 경남대학교 한마관,경상남도 창원시 마산합포구 완월동,가,학교지역,341342.53,188223.62,35.1832933296,128.5525401074
EM,환경기준(수동),CW,경남창원시,B14816009,완월동 마산여자고등학교 앞,경상남도 창원시 마산합포구 완월동,가,학교지역,342003.36,189608.65,35.1956796281,128.5600306754
EM,환경기준(수동),CW,경남창원시,B14816010,완월동 완월초등학교 앞,경상남도 창원시 마산합포구 완월동,가,학교지역,342235.05,190126.38,35.2003117303,128.5626630063
EM,환경기준(수동),CW,경남창원시,B14816011,구암2동 고려탕 앞,경상남도 창원시 마산회원구 구암동,나,일반주거지역,344817.06,195110.37,35.2448488752,128.5918806791
EM,환경기준(수동),CW,경남창원시,B14816012,구암2동 동마맨션 입구 ,경상남도 창원시 마산회원구 구암동,나,일반주거지역,194.18,162.78,35.2462386576,128.591703748
EM,환경기준(수동),CW,경남창원시,B14816013,합성2동 주노빌(원룸) 입구,경상남도 창원시 마산회원구 합성동,나,일반주거지역,193.97,162.56,35.2443376651,128.589296236
EM,환경기준(수동),CW,경남창원시,B14816014,합성2동 삼성창원병원 건너편,경상남도 창원시 마산회원구 구암동,나,일반주거지역,344770.11,194887.96,35.2428517744,128.5913259796
EM,환경기준(수동),CW,경남창원시,B14816015,구암동 복음병원 앞,경상남도 창원시 마산회원구 구암동,나,일반주거지역,194.1,162.52,35.2455078691,128.588850814
EM,환경기준(수동),CW,경남창원시,B14816016,부림동 SK텔레콤,경상남도 창원시 마산합포구 부림동,다,상업지역,343266.02,190815.43,35.2063738325,128.5740994549
EM,환경기준(수동),CW,경남창원시,B14816017,K비전안경원,경상남도 창원시 마산합포구 부림동,다,상업지역,189.72,161.15,35.2059778972,128.574006646
EM,환경기준(수동),CW,경남창원시,B14816018,부국증권건물시집가는날,경상남도 창원시 마산합포구 부림동,다,상업지역,189.62,161.2,35.2050785237,128.574560452
EM,환경기준(수동),CW,경남창원시,B14816019,부림동 부림옥상주차장 입구,경상남도 창원시 마산합포구 부림동,다,상업지역,189.77,161.1,35.2064266096,128.5734552
EM,환경기준(수동),CW,경남창원시,B14816020,IG조명,경상남도 창원시 마산합포구 부림동,다,상업지역,189.62,161.1,35.2050746344,128.573462317
EM,환경기준(수동),CW,경남창원시,B14816021,봉암동 공구할인매장 앞,경상남도 창원시 마산회원구 봉암동,라,일반공업지역,190.91,163.57,35.2167948009,128.600528964
EM,환경기준(수동),CW,경남창원시,B14816022,봉암동 다완기계 정문,경상남도 창원시 마산회원구 봉암동,라,일반공업지역,190.65,163.98,35.2144662524,128.605043416
EM,환경기준(수동),CW,경남창원시,B14816023,봉암동 대성정밀 앞,경상남도 창원시 마산회원구 봉암동,라,일반공업지역,190.48,163.79,35.2129271357,128.602964225
EM,환경기준(수동),CW,경남창원시,B14816024,봉암동 태성금속 앞,경상남도 창원시 마산회원구 봉암동,라,일반공업지역,345783.8,191855.99,35.2153873197,128.601922698
EM,환경기준(수동),CW,경남창원시,B14816025,봉암동 수출3공구 정문 초소 앞,경상남도 창원시 마산회원구 봉암동,라,일반공업지역,345790.57,191590.8,35.2129969782,128.6019501065
EA,환경기준(자동),PH,경북포항시,A04711001,포항성모병원,경상북도 포항시 남구 대잠동,가,종합병원지역,230743,379924,36.01645243,129.34103898
EA,환경기준(자동),PH,경북포항시,A04711002,포항제철중학교,경상북도 포항시 남구 지곡동,가,학교지역,229314,380361,36.02043477,129.32520317
EA,환경기준(자동),PH,경북포항시,A04711003,가온누리빌딩 앞,경상북도 포항시 남구 오천읍 원리,나,일반주거지역,236454,374867,35.97068125,129.40415851
EA,환경기준(자동),PH,경북포항시,A04711004,한우랑 앞,경상북도 포항시 북구 양덕동,나,준주거지역,235002,388099,36.08998229,129.38864613
EA,환경기준(자동),PH,경북포항시,A04711005,KB국민은행 앞,경상북도 포항시 북구,다,상업지역,232001,380223,36.01910657,129.3550061
EM,환경기준(수동),PH,경북포항시,B14711001,포항여고 앞,경상북도 포항시 북구 대신동,가,종합병원지역,413029.178,285840.759,36.04974169564642,129.36476659701017
EM,환경기준(수동),PH,경북포항시,B14711002,장재형 손해사정사무소 앞,경상북도 포항시 북구 대신동,가,종합병원지역,413199.36,285575.81,36.04731870748054,129.3665822306482
EM,환경기준(수동),PH,경북포항시,B14711003,북부시장입구,경상북도 포항시 북구 대신동,가,종합병원지역,413361.444,285657.828,36.04802181876276,129.36840157993947
EM,환경기준(수동),PH,경북포항시,B14711004,"대신동경로당 앞
(구 대신동사무소)",경상북도 포항시 북구 대신동,가,종합병원지역,413262.28,285586.93,36.0474050914,129.3672828983
EM,환경기준(수동),PH,경북포항시,B14711005,여성폭력종합상담소 앞,경상북도 포항시 북구 대신동,가,종합병원지역,413138.54,285653,36.04802706597327,129.36592872904518
EM,환경기준(수동),PH,경북포항시,B14711006,"흥해박물관 앞
(구 사회교육관)",경상북도 포항시 북구 흥해읍,나,일반주거지역,411310.72,292531.49,36.1103630254,129.3475003474
EM,환경기준(수동),PH,경북포항시,B14711007,흥해향교 앞,경상북도 포항시 북구 흥해읍,나,일반주거지역,410990.707,292355.812,36.10885060320023,129.34390216657138
EM,환경기준(수동),PH,경북포항시,B14711008,흥해교회 앞,경상북도 포항시 북구 흥해읍,나,일반주거지역,411038.839,292239.925,36.107796652650016,129.34440529529408
EM,환경기준(수동),PH,경북포항시,B14711009,농협주유소 앞,경상북도 포항시 북구 흥해읍,나,일반주거지역,410962.861,291938.685,36.10510059601358,129.3434816776608
EM,환경기준(수동),PH,경북포항시,B14711010,"별밤지기 앞
(프라이비트)",경상북도 포항시 북구 중앙동,다,상업지역,413098.24,284615.46,36.0386933223,129.3652025754
EM,환경기준(수동),PH,경북포항시,B14711011,"롯데시네마 앞
(구 포항극장)",경상북도 포항시 북구 중앙동,다,상업지역,412885.76,284400.34,36.0368027353,129.3627890261
EM,환경기준(수동),PH,경북포항시,B14711012,"중앙사우나 앞
(구 삼성빌딩)",경상북도 포항시 북구 중앙동,다,상업지역,413041.79,284339.4,36.0362198832,129.3645025032
EM,환경기준(수동),PH,경북포항시,B14711013,우아미가구 앞(구 김종화가구),경상북도 포항시 북구 중앙동,다,상업지역,413376.5,284442.9,36.0370786852,129.3682410873
EM,환경기준(수동),PH,경북포항시,B14711014,중소기업은행,경상북도 포항시 북구 중앙동,다,상업지역,413081.044,284396.321,36.03672387800484,129.3649530096959
EM,환경기준(수동),PH,경북포항시,B14711015,"포스코플랜텍 뒷편
(구 포스맥)",경상북도 포항시 남구 괴동동,라,전용공업지역,412776.36,279531.62,35.99298576385643,129.36026962192992
EM,환경기준(수동),PH,경북포항시,B14711016,교통안전공단 포항 자동차검사소앞,경상북도 포항시 남구 괴동동,라,전용공업지역,413264.792,279831.499,35.995579501381364,129.3657622962089
EM,환경기준(수동),PH,경북포항시,B14711017,유니코정밀화학뒤편,경상북도 포항시 남구 괴동동,라,전용공업지역,413651.043,280266.555,35.99941257786334,129.37015937327396
EM,환경기준(수동),PH,경북포항시,B14711018,동국산업서문앞(도로),경상북도 포항시 남구 괴동동,라,전용공업지역,413178.997,278753.591,35.98589209867702,129.36452216454555
EM,환경기준(수동),PH,경북포항시,B14711019,동국제강스틸센타옆,경상북도 포항시 남구 괴동동,라,전용공업지역,413160.347,278964.849,35.98779845961806,129.36437224264282
EA,환경기준(자동),GJ,광주광역시,A02911001,주차장 앞,광주광역시 동구 서석동,가,종합병원지역,193342,283184,35.1449678918,126.9267098136
EA,환경기준(자동),GJ,광주광역시,A02911003,새마을금고 앞,광주광역시 동구 산수동,나,일반주거지역,194213,284310,35.155217471039975,126.93646796405176
EA,환경기준(자동),GJ,광주광역시,A02915001,봉선1로 63 앞,광주광역시 남구 봉선동,나,일반주거지역,191673,281281,35.1277009755,126.9088697433
EA,환경기준(자동),GJ,광주광역시,A02917002,일곡중학교 앞,광주광역시 북구 일곡동,가,학교지역,190678,290290,35.2085496216,126.8977126012
EA,환경기준(자동),GJ,광주광역시,A02917003,파워디지털017 앞,광주광역시 북구 중흥동,나,준주거지역,192249,285507,35.1659568719,126.9149894192
EM,환경기준(수동),GJ,광주광역시,A12911001,조대병원중앙,광주광역시 동구 서석동,가,종합병원지역,11175,284430,35.1385454,126.9282065
EM,환경기준(수동),GJ,광주광역시,A12911002,조대병원 목공실 앞,광주광역시 동구 서석동,가,종합병원지역,11175,284430,35.1385454,126.9282065
EM,환경기준(수동),GJ,광주광역시,A12911004,주  차  장,광주광역시 동구 서석동,가,종합병원지역,11175,284430,35.1385454,126.9282065
EM,환경기준(수동),GJ,광주광역시,A12911005,조대병원장례식장,광주광역시 동구 서석동,가,종합병원지역,11175,284430,35.1385454,126.9282065
EM,환경기준(수동),GJ,광주광역시,A12911006,산수2동 사무소,광주광역시 동구 산수동,나,일반주거지역,11937,286194,35.1545761,126.93616
EM,환경기준(수동),GJ,광주광역시,A12911007,수정수퍼,광주광역시 동구 산수동,나,일반주거지역,11761,286422,35.156594,126.9341828
EM,환경기준(수동),GJ,광주광역시,A12911008,제스쳐헤어아트,광주광역시 동구 산수동,나,일반주거지역,11707,286062,35.1533398,126.9336697
EM,환경기준(수동),GJ,광주광역시,A12911009,법원관사,광주광역시 동구 산수동,나,일반주거지역,11997,286515,35.1574787,126.9367503
EM,환경기준(수동),GJ,광주광역시,A12911010,새마을금고,광주광역시 동구 산수동,나,일반주거지역,11774,286306,35.1555576,126.9343483
EM,환경기준(수동),GJ,광주광역시,A12911011,원더풀고시텔,광주광역시 동구,가,종합병원지역,10844,284470,35.1388406,126.9245743
EM,환경기준(수동),GJ,광주광역시,A12915001,생활체육광장,광주광역시 남구 사동,가,녹지지역,9694,284833,35.1418965,126.9118754
EM,환경기준(수동),GJ,광주광역시,A12915002,충현원(팔각정),광주광역시 남구 사동,가,녹지지역,9694,284833,35.1418965,126.9118754
EM,환경기준(수동),GJ,광주광역시,A12915003,구허니문카(관덕정),광주광역시 남구 사동,가,녹지지역,9694,284833,35.1418965,126.9118754
EM,환경기준(수동),GJ,광주광역시,A12915004,광주전남노인회관,광주광역시 남구 사동,가,녹지지역,9573,284754,35.1411564,126.9105704
EM,환경기준(수동),GJ,광주광역시,A12915005,양림파출소,광주광역시 남구 사동,가,녹지지역,10005,284946,35.1429716,126.915265
EM,환경기준(수동),GJ,광주광역시,A12915011,봉선중 8길1,광주광역시 남구 봉선동,나,일반주거지역,9872,283470,35.1296487,126.9141489
EM,환경기준(수동),GJ,광주광역시,A12915012,봉선초등5길 4,광주광역시 남구 봉선동,나,일반주거지역,9763,283551,35.1303599,126.9129303
EM,환경기준(수동),GJ,광주광역시,A12915013,재석초등3길 3,광주광역시 남구 봉선동,나,일반주거지역,9236,283403,35.1289224,126.9071828
EM,환경기준(수동),GJ,광주광역시,A12915014,봉선중앙로 43(라인아파트),광주광역시 남구 봉선동,나,일반주거지역,9593,283524,35.1300881,126.9110764
EM,환경기준(수동),GJ,광주광역시,A12915015,봉선1로 63(라인광장),광주광역시 남구 봉선동,나,일반주거지역,9491,283294,35.1279962,126.9100035
EM,환경기준(수동),GJ,광주광역시,A12917006,지리산 천신산녀,광주광역시 북구 우산동,나,준주거지역,10333,287545,35.1664449,126.9182588
EM,환경기준(수동),GJ,광주광역시,A12917007,광주일보 우산보급소,광주광역시 북구 우산동,나,준주거지역,10093,287580,35.1667135,126.9156241
EM,환경기준(수동),GJ,광주광역시,A12917008,중흥천주교회,광주광역시 북구 우산동,나,준주거지역,9996,287674,35.167542,126.9145365
EM,환경기준(수동),GJ,광주광역시,A12917009,효동떡방앗간,광주광역시 북구 우산동,나,준주거지역,9941,287712,35.167875,126.9139215
EM,환경기준(수동),GJ,광주광역시,A12917010,파워디지털 017,광주광역시 북구 우산동,나,준주거지역,9867,287570,35.1665765,126.9131435
EM,환경기준(수동),GJ,광주광역시,A12917011,현대아파트 관리사무소 앞,광주광역시 북구 일곡동,가,학교지역,8770,292288,35.2088666,126.9000179
EM,환경기준(수동),GJ,광주광역시,A12917012,롯데아파트 주민자치체육교실 앞,광주광역시 북구 일곡동,가,학교지역,8516,292697,35.2125056,126.8971359
EM,환경기준(수동),GJ,광주광역시,A12917013,대림아파트 관리사무소 앞,광주광역시 북구 일곡동,가,학교지역,8765,292476,35.210561,126.899917
EM,환경기준(수동),GJ,광주광역시,A12917014,일곡로 246,광주광역시 북구 일곡동,가,학교지역,8549,292389,35.2097388,126.8975678
EM,환경기준(수동),GJ,광주광역시,A12917015,일곡도서관길 135,광주광역시 북구 일곡동,가,학교지역,8381,292432,35.2100887,126.8957113
EM,환경기준(수동),GJ,광주광역시,A12920001,삼영정미소,광주광역시 광산구 소촌동,다,준공업지역,-1402,286087,35.1510289,126.7898844
EM,환경기준(수동),GJ,광주광역시,A12920002,동양 스티로폴,광주광역시 광산구 소촌동,다,준공업지역,-1381,285926,35.1495872,126.7901625
EM,환경기준(수동),GJ,광주광역시,A12920003,광우 라디에터,광주광역시 광산구 소촌동,다,준공업지역,-1219,285779,35.1482924,126.7919766
EM,환경기준(수동),GJ,광주광역시,A12920004,한전 광주전력관리처,광주광역시 광산구 소촌동,다,준공업지역,-1400,285676,35.1473245,126.7900147
EM,환경기준(수동),GJ,광주광역시,A12920005,송정자동차정비,광주광역시 광산구 소촌동,다,준공업지역,-1495,285908,35.1493957,126.7889119
EM,환경기준(수동),GJ,광주광역시,A12920006,유일기계,광주광역시 광산구 장덕동,라,일반공업지역,-267,291234,35.1976117,126.8010848
EM,환경기준(수동),GJ,광주광역시,A12920007,대우전자,광주광역시 광산구 장덕동,라,일반공업지역,-302,290736,35.1931225,126.8008213
EM,환경기준(수동),GJ,광주광역시,A12920008,㈜경희,광주광역시 광산구 장덕동,라,일반공업지역,-569,290207,35.1883046,126.7980224
EM,환경기준(수동),GJ,광주광역시,A12920009,신일가스,광주광역시 광산구 장덕동,라,일반공업지역,452,291093,35.1964888,126.8090265
EM,환경기준(수동),GJ,광주광역시,A12920010,신풍,광주광역시 광산구 장덕동,라,일반공업지역,458,290035,35.1869621,126.8093454
EM,환경기준(수동),GJ,광주광역시,A12920011,쌍암3로 119 (인터넷모텔),광주광역시 광산구 쌍암동,다,상업지역,4028,293521,35.2190597,126.8476794
EM,환경기준(수동),GJ,광주광역시,A12920012,쌍암1길 19 (공원),광주광역시 광산구 쌍암동,다,상업지역,4028,293521,35.2190597,126.8476794
EM,환경기준(수동),GJ,광주광역시,A12920013,쌍암2로 11 (모드니교회),광주광역시 광산구 쌍암동,다,상업지역,3585,293787,35.2213698,126.8427543
EM,환경기준(수동),GJ,광주광역시,A12920014,쌍암3길 42 (그랑삐아또),광주광역시 광산구 쌍암동,다,상업지역,4033,293806,35.2216285,126.8476746
EM,환경기준(수동),GJ,광주광역시,A12920015,쌍암2길 24 (늘마루),광주광역시 광산구 쌍암동,다,상업지역,3909,293612,35.2198602,126.8463598
EM,환경기준(수동),GJ,광주광역시,B12911001,장동로 23-16,광주광역시 동구 동명동,가,학교지역,193101.62,183290.32,35.14871650528488,126.92513154398603
EM,환경기준(수동),GJ,광주광역시,B12911002,장동로 32,광주광역시 동구 동명동,가,학교지역,193178.12,183176.83,35.14769401243036,126.92597202003739
EM,환경기준(수동),GJ,광주광역시,B12911003,제봉로82번길 26,광주광역시 동구 동명동,가,학교지역,193035.12,183205.83,35.14795439848836,126.92440250300274
EM,환경기준(수동),GJ,광주광역시,B12911004,제봉로110번길 10,광주광역시 동구 서석동,가,학교지역,192978.13,183267.82,35.148512824454315,126.92377644692137
EM,환경기준(수동),GJ,광주광역시,B12911005,백서로 208,광주광역시 동구 장동,가,학교지역,193168.12,183030.83,35.14637797015648,126.92586352286682
EM,환경기준(수동),GJ,광주광역시,B12914001,화정로279번길 20-1,광주광역시 서구 농성동,나,준주거지역,189518.15,183501.82,35.15059117782496,126.88580327642472
EM,환경기준(수동),GJ,광주광역시,B12914002,대남대로450번길 4-1,광주광역시 서구 농성동,나,준주거지역,189676.14,183495.82,35.15053876736346,126.88753727965741
EM,환경기준(수동),GJ,광주광역시,B12914003,화정로280번길 3,광주광역시 서구 농성동,나,준주거지역,189658.14,183274.82,35.148546577411494,126.88734256196334
EM,환경기준(수동),GJ,광주광역시,B12914004,대남대로 465,광주광역시 서구 농성동,나,준주거지역,189523.15,183602.82,35.151501609111676,126.88585685842534
EM,환경기준(수동),GJ,광주광역시,B12914005,대남대로 432,광주광역시 서구 농성동,나,준주거지역,189718.14,183339.82,35.149133080591085,126.88800018159736
EM,환경기준(수동),GJ,광주광역시,B12915001,양림로 37(기독병원장례식장 앞),광주광역시 남구 양림동,가,종합병원지역,191872.13,181957.83,35.13669661353126,126.91165233651161
EM,환경기준(수동),GJ,광주광역시,B12915002,양림로 37(기독병원로비 앞),광주광역시 남구 양림동,가,종합병원지역,191992,282223,35.1364431,126.911672
EM,환경기준(수동),GJ,광주광역시,B12915003,백양로89번길 12,광주광역시 남구 양림동,가,종합병원지역,191880.13,181816.83,35.13542577403048,126.91174152771981
EM,환경기준(수동),GJ,광주광역시,B12915004,양림로 40,광주광역시 남구 양림동,가,종합병원지역,192028.13,181958.33,35.13670239683334,126.91336402902215
EM,환경기준(수동),GJ,광주광역시,B12915005,백서로 14,광주광역시 남구 양림동,가,종합병원지역,191811,282173,35.1356491,126.910521
EM,환경기준(수동),GJ,광주광역시,B12915009,평동산단2번로 189,광주광역시 광산구 장록동,라,일반공업지역,282005,179053,35.1348324,126.770615
EM,환경기준(수동),GJ,광주광역시,B12915010,평동로 841,광주광역시 광산구 옥동,라,일반공업지역,280962,178653,35.1253774,126.766056
EM,환경기준(수동),GJ,광주광역시,B12917001,서강로54번길 10,광주광역시 북구,나,일반주거지역,188226.15,186312.81,35.17591352795267,126.8715837724969
EM,환경기준(수동),GJ,광주광역시,B12917002,대자로 57,광주광역시 북구,나,일반주거지역,188910.15,186136.81,35.1743350754,126.8790949267
EM,환경기준(수동),GJ,광주광역시,B12917003,대자실로 23,광주광역시 북구,나,일반주거지역,188634.15,187102.8,35.1792405,126.872861
EM,환경기준(수동),GJ,광주광역시,B12917004,서강로54번길 30,광주광역시 북구,나,일반주거지역,188476.15,186323.81,35.17601562387337,126.87432804096846
EM,환경기준(수동),GJ,광주광역시,B12917005,운암동 966-1,광주광역시 북구,나,일반주거지역,188736.15,35.18,35.1793477,126.871972
EM,환경기준(수동),GJ,광주광역시,B12920001,광산로20번길 37,광주광역시 광산구 송정동,다,상업지역,181.22,182.03,35.137209673,126.794772843
EM,환경기준(수동),GJ,광주광역시,B12920002,광산로 41,광주광역시 광산구 송정동,다,상업지역,181332.2,182274.83,35.139411639461606,126.79599584904345
EM,환경기준(수동),GJ,광주광역시,B12920003,광산로68번길 13,광주광역시 광산구 송정동,다,상업지역,181666.19,182596.83,35.14232018545008,126.79965353695945
EM,환경기준(수동),GJ,광주광역시,B12920004,상무대로 201,광주광역시 광산구 송정동,다,상업지역,180894.17,182051.9,35.137393917230845,126.7911946409087
EM,환경기준(수동),GJ,광주광역시,B12920005,상무대로 338,광주광역시 광산구 송정동,다,상업지역,181992.19,182758.83,35.14378629692119,126.80322722508788
EM,환경기준(수동),GJ,광주광역시,B12920006,평동산단2번로 39,광주광역시 광산구 용동,라,일반공업지역,281851,177587,35.1329611,126.75414
EM,환경기준(수동),GJ,광주광역시,B12920007,평동로803번길 83-38,광주광역시 광산구 용동,라,일반공업지역,177862,281689,35.131867,126.756853
EM,환경기준(수동),GJ,광주광역시,B12920008,평동산단로 239-15,광주광역시 광산구 옥동,라,일반공업지역,281305,178668,35.1275316,126.766027
RV,도로교통소음(이동),GJ,광주광역시,F12911001,조대입구 서석새마을금고 앞,광주광역시 동구 서석동,,주거지역,193070.154,182859.806,35.14483578823781,126.9247899053596
RV,도로교통소음(이동),GJ,광주광역시,F12911002,산수오거리 제주물항 앞,광주광역시 동구 산수동,,주거지역,193640.65,183759.31,35.1529473467,126.9310432262
RV,도로교통소음(이동),GJ,광주광역시,F12917001,코리아나 호텔 옆,광주광역시 북구 신안동,,상업지역,191284,285259,35.16361428791052,126.9045147907816
RV,도로교통소음(이동),GJ,광주광역시,F12917002,현대백화점 앞,광주광역시 북구 신안동,,상업지역,191560,284989,35.16169230148827,126.90751900802208
RV,도로교통소음(이동),GJ,광주광역시,F12920001,협동엔터프라이즈 앞,광주광역시 광산구 하남동,,공업지역,182151.492,187584.633,35.18728644470446,126.80486989078469
RV,도로교통소음(이동),GJ,광주광역시,F12920002,광일기공 앞,광주광역시 광산구 장덕동,,공업지역,182220.992,187996.133,35.19099672042675,126.80562398593452
EA,환경기준(자동),DG,대구광역시,A02711002,새동산약국 앞,대구광역시 중구 동산동,가,종합병원지역,162309,363759,35.8705290205,128.5826521679
EA,환경기준(자동),DG,대구광역시,A02720001,계명약국 옆,대구광역시 남구 대명동,가,학교지역,162255,362211,35.856571317237176,128.582124825619
EA,환경기준(자동),DG,대구광역시,A02726001,원음피아노 앞,대구광역시 수성구 상동,나,일반주거지역,164952,360383,35.8401957828,128.6121153268
EA,환경기준(자동),DG,대구광역시,A02726002,국립대구박물관 앞,대구광역시 수성구 황금동,나,일반주거지역,167371,360786,35.8439173321,128.638819967
EA,환경기준(자동),DG,대구광역시,A02729002,축협월성지점 앞,대구광역시 달서구 본동,나,일반주거지역,158149,360037,35.8368160434,128.5367891965
EA,환경기준(자동),DG,대구광역시,A22711003,[IoT] 개정,대구광역시 중구,다,상업지역,163692.95,363486.94,35.86795,128.59799
EA,환경기준(자동),DG,대구광역시,A22711004,[IoT] 신피부과,대구광역시 중구,다,상업지역,163767.77,363714.46,35.87018,128.598808
EA,환경기준(자동),DG,대구광역시,A22717001,[IoT] 모나리자,대구광역시 서구,나,준주거지역,160281.14,365307.4,35.884401,128.560123
EA,환경기준(자동),DG,대구광역시,A22717002,[IoT] 청수사우나,대구광역시 서구,나,준주거지역,160470.23,365489.631,35.886051,128.562208
EA,환경기준(자동),DG,대구광역시,A22717003,[IoT] 티에프텍스츄어,대구광역시 서구,라,일반공업지역,159434.563,365338.32,35.884645,128.550746
EA,환경기준(자동),DG,대구광역시,A22717004,[IoT] 대한방직 대구공장,대구광역시 서구,라,일반공업지역,159681.682,365747.963,35.888347,128.553462
EA,환경기준(자동),DG,대구광역시,A22720003,[IoT] 계명유치원앞,대구광역시 남구,가,학교지역,162025.22,362162.93,35.856131,128.579587
EA,환경기준(자동),DG,대구광역시,A22720004,[IoT] 계명문화대학정문 옆,대구광역시 남구,가,학교지역,162330.058,362058.589,35.855202,128.582967
EA,환경기준(자동),DG,대구광역시,A22723001,[IoT] 삼선진공,대구광역시 북구,다,준공업지역,162148.818,367189.28,35.901434,128.580598
EA,환경기준(자동),DG,대구광역시,A22723002,[IoT] 세화정공,대구광역시 북구,다,준공업지역,162012.816,367018.706,35.899894,128.579218
EA,환경기준(자동),DG,대구광역시,A22723003,[IoT] 거북공원,대구광역시 북구,가,전용주거지역,161095.291,372512.103,35.949364,128.568789
EA,환경기준(자동),DG,대구광역시,A22723004,[IoT] 학정초등학교,대구광역시 북구,가,전용주거지역,161170.593,372463.281,35.948927,128.569624
EA,환경기준(자동),DG,대구광역시,A22723005,[IoT] 태양빌라트,대구광역시 북구,나,일반주거지역,160220.237,371339.713,35.938763,128.559147
EA,환경기준(자동),DG,대구광역시,A22723006,[IoT] 부영5단지501동 앞,대구광역시 북구,나,일반주거지역,160571.016,371084.7,35.936479,128.563047
EA,환경기준(자동),DG,대구광역시,A22723007,[IoT] 화진빌,대구광역시 북구,나,일반주거지역,161423.505,371992.471,35.944694,128.57245
EA,환경기준(자동),DG,대구광역시,A22723008,[IoT] 칠곡그린빌5단지503동,대구광역시 북구,나,일반주거지역,161166.507,371966.415,35.944449,128.569603
EA,환경기준(자동),DG,대구광역시,A22723009,[IoT] 유마트,대구광역시 북구,다,상업지역,163162.195,365925.607,35.890085,128.592
EA,환경기준(자동),DG,대구광역시,A22723010,[IoT] 대우빌딩,대구광역시 북구,다,상업지역,163061.063,365878.884,35.889716,128.590784
EA,환경기준(자동),DG,대구광역시,A22726003,[IoT] 청소년수련관앞,대구광역시 수성구,가,녹지지역,166760.551,360883.724,35.844774,128.632063
EA,환경기준(자동),DG,대구광역시,A22726004,[IoT] 대구북성교회,대구광역시 수성구,가,녹지지역,166502.339,360338.693,35.839853,128.629228
EA,환경기준(자동),DG,대구광역시,A22726005,[IoT] 백합소공원,대구광역시 수성구,나,일반주거지역,165061.896,360016.984,35.836904,128.613299
EA,환경기준(자동),DG,대구광역시,A22726006,[IoT] 삼대곰탕,대구광역시 수성구,나,일반주거지역,165393.03,359879.04,35.835672,128.61697
EA,환경기준(자동),DG,대구광역시,A22726007,[IoT] 우신빌라,대구광역시 수성구,나,일반주거지역,168625.602,361175.066,35.847461,128.652696
EA,환경기준(자동),DG,대구광역시,A22726008,[IoT] 대백마트 맞은편,대구광역시 수성구,나,일반주거지역,168565.524,361465.269,35.850075,128.65202
EA,환경기준(자동),DG,대구광역시,A22726009,[IoT] 로얄하이츠,대구광역시 수성구,나,일반주거지역,167260.412,363425.762,35.867701,128.637492
EA,환경기준(자동),DG,대구광역시,A22726010,[IoT] 대구전파관리소,대구광역시 수성구,나,일반주거지역,167384.642,363381.935,35.86731,128.638869
EA,환경기준(자동),DG,대구광역시,A22726011,[IoT] 드림빌딩,대구광역시 수성구,나,일반주거지역,166678.531,358240.194,35.820947,128.631266
EA,환경기준(자동),DG,대구광역시,A22726012,[IoT] 무지개유치원,대구광역시 수성구,나,일반주거지역,166567.112,358358.261,35.822007,128.630028
EA,환경기준(자동),DG,대구광역시,A22729003,[IoT] 대동맨션,대구광역시 달서구,나,일반주거지역,158131.41,359716.07,35.833921,128.53673
EA,환경기준(자동),DG,대구광역시,A22729004,[IoT] 디지털인쇄나라,대구광역시 달서구,나,일반주거지역,158181.611,359744.911,35.834183,128.537163
EA,환경기준(자동),DG,대구광역시,A22729005,[IoT] 대산금속,대구광역시 달서구,라,일반공업지역,154529.831,360118.603,35.837388,128.496726
EA,환경기준(자동),DG,대구광역시,A22729006,[IoT] 진흥섬유,대구광역시 달서구,라,일반공업지역,154824.322,360299.17,35.839029,128.499975
EA,환경기준(자동),DG,대구광역시,A22729007,[IoT] 행복빌,대구광역시 달서구,가,종합병원지역,152914.605,362129.65,35.855436,128.47873
EA,환경기준(자동),DG,대구광역시,A22729008,[IoT] 계명대학교동산병원 맞은편,대구광역시 달서구,가,종합병원지역,153008.323,361834.36,35.852779,128.479785
EA,환경기준(자동),DG,대구광역시,A22729009,[IoT] 푸른마을101동,대구광역시 달서구,나,일반주거지역,155734.296,362610.06,35.859897,128.509919
EA,환경기준(자동),DG,대구광역시,A22729010,[IoT] 한샘타운107동,대구광역시 달서구,나,일반주거지역,155722.737,362554.626,35.859397,128.509794
EA,환경기준(자동),DG,대구광역시,A22729011,[IoT] 성당코오롱하늘채106동,대구광역시 달서구,나,일반주거지역,158745.79,360916.723,35.844767,128.543346
EA,환경기준(자동),DG,대구광역시,A22729012,[IoT] 성당래미안e편한세상2단지,대구광역시 달서구,나,일반주거지역,158789.52,360778.213,35.843521,128.543838
EA,환경기준(자동),DG,대구광역시,A22729013,[IoT] 대천성당,대구광역시 달서구,나,일반주거지역,156400.858,358093.294,35.81922,128.517545
EA,환경기준(자동),DG,대구광역시,A22729014,[IoT] 팔공축산물판매장,대구광역시 달서구,나,일반주거지역,156210.942,358100.397,35.819198,128.515345
EA,환경기준(자동),DG,대구광역시,A22729015,[IoT] 소화어린이집,대구광역시 달서구,나,일반주거지역,158087.587,357591.191,35.814769,128.536235
EA,환경기준(자동),DG,대구광역시,A22729016,[IoT] 관음사,대구광역시 달서구,나,일반주거지역,158071.655,357485.187,35.813813,128.536064
EA,환경기준(자동),DG,대구광역시,A22729017,[IoT] 신화에스티,대구광역시 달서구,라,일반공업지역,152698.623,361203.891,35.847082,128.476394
EA,환경기준(자동),DG,대구광역시,A22729018,[IoT] 영재이엔지,대구광역시 달서구,라,일반공업지역,152842.092,361432.38,35.849148,128.477969
EA,환경기준(자동),DG,대구광역시,A22729019,[IoT] 태성정밀,대구광역시 달서구,라,일반공업지역,154955.089,361509.584,35.849943,128.501354
EM,환경기준(수동),DG,대구광역시,A12711001,부창생갈비 앞(구. 동산미용실 앞),대구광역시 중구 동산동,가,종합병원지역,162497,363702,35.8700207,128.5847421
EM,환경기준(수동),DG,대구광역시,A12711002,진주집앞,대구광역시 중구 동산동,가,종합병원지역,162570,363548,35.8686403,128.585556
EM,환경기준(수동),DG,대구광역시,A12711003,김일수댁앞,대구광역시 중구 동산동,가,종합병원지역,162476,363364,35.8669687,128.5845263
EM,환경기준(수동),DG,대구광역시,A12711004,동산병원정문앞,대구광역시 중구 동산동,가,종합병원지역,162296,363722,35.8701942,128.5825202
EM,환경기준(수동),DG,대구광역시,A12711005,나사렛약국 앞,대구광역시 중구 동산동,가,종합병원지역,162316,363750,35.8704527,128.5827357
EM,환경기준(수동),DG,대구광역시,A12711006,삼덕성당뒷편,대구광역시 중구 동성로1가,다,상업지역,163820,363441,35.8677178,128.5994097
EM,환경기준(수동),DG,대구광역시,A12711007,금융결재원뒤,대구광역시 중구 동성로1가,다,상업지역,163586,363471,35.8679866,128.5968134
EM,환경기준(수동),DG,대구광역시,A12711008,조일상호신용금고옆,대구광역시 중구 동성로1가,다,상업지역,164653,363490,35.8681986,128.6086305
EM,환경기준(수동),DG,대구광역시,A12711009,제일극장옆,대구광역시 중구 동성로1가,다,상업지역,163330,363512,35.8683397,128.5939752
EM,환경기준(수동),DG,대구광역시,A12711010,신피부비뇨기과옆,대구광역시 중구 동성로1가,다,상업지역,163868,363681,35.8698827,128.5999292
EM,환경기준(수동),DG,대구광역시,A12717001,칠곡떡방앗간옆,대구광역시 서구 비산동,나,준주거지역,160285,365305,35.884382,128.5601681
EM,환경기준(수동),DG,대구광역시,A12717002,이화미용소앞,대구광역시 서구 비산동,나,준주거지역,160469,365422,35.8854459,128.5622044
EM,환경기준(수동),DG,대구광역시,A12717003,이정환집앞,대구광역시 서구 비산동,나,준주거지역,160159,365376,35.8850218,128.5587743
EM,환경기준(수동),DG,대구광역시,A12717004,유리 커피숍 앞,대구광역시 서구 비산동,나,준주거지역,160313,365664,35.8876222,128.5604642
EM,환경기준(수동),DG,대구광역시,A12717005,동원장여관앞,대구광역시 서구 비산동,나,준주거지역,160096,365519,35.8863016,128.5580685
EM,환경기준(수동),DG,대구광역시,A12717006,창성염공앞,대구광역시 서구 비산동,라,전용공업지역,159258,365801,35.8888098,128.5487711
EM,환경기준(수동),DG,대구광역시,A12717007,삼부염직앞,대구광역시 서구 비산동,라,전용공업지역,158904,365670,35.8876165,128.544861
EM,환경기준(수동),DG,대구광역시,A12717008,삼창염직앞,대구광역시 서구 비산동,라,전용공업지역,159581,365399,35.8852039,128.5523663
EM,환경기준(수동),DG,대구광역시,A12717009,㈜갑을앞,대구광역시 서구 비산동,라,전용공업지역,159568,365732,35.8882066,128.5522145
EM,환경기준(수동),DG,대구광역시,A12717010,동국화섬㈜앞,대구광역시 서구 비산동,라,전용공업지역,159217,365250,35.883841,128.5483422
EM,환경기준(수동),DG,대구광역시,A12720001,계명유치원앞,대구광역시 남구 대명동,가,학교지역,162007,362195,35.8564209,128.5793906
EM,환경기준(수동),DG,대구광역시,A12720002,아진슈퍼앞(구.무등슈퍼앞),대구광역시 남구 대명동,가,학교지역,161952,361779,35.8526709,128.5787961
EM,환경기준(수동),DG,대구광역시,A12720003,계명대학교후문앞,대구광역시 남구 대명동,가,학교지역,162132,361749,35.8524104,128.5807944
EM,환경기준(수동),DG,대구광역시,A12720004,계명약국옆,대구광역시 남구 대명동,가,학교지역,162177,362232,35.8567657,128.5812682
EM,환경기준(수동),DG,대구광역시,A12720005,계명문화대학앞,대구광역시 남구 대명동,가,학교지역,162000,362097,35.8555387,128.5793178
EM,환경기준(수동),DG,대구광역시,A12723006,삼양식품앞,대구광역시 북구 노원동3가,다,준공업지역,161192,366710,35.8970841,128.5701523
EM,환경기준(수동),DG,대구광역시,A12723007,성창기업 앞,대구광역시 북구 노원동3가,다,준공업지역,160875,366565,35.8957601,128.5666486
EM,환경기준(수동),DG,대구광역시,A12723010,3공단 치안센터 앞,대구광역시 북구 노원동3가,다,준공업지역,161457,366883,35.89865,128.5730739
EM,환경기준(수동),DG,대구광역시,A12723011,제일정공,대구광역시 북구,다,준공업지역,162109,367131,35.9009163,128.5802847
EM,환경기준(수동),DG,대구광역시,A12723012,노원주유소,대구광역시 북구,다,준공업지역,161348,366551,35.8956557,128.571885
EM,환경기준(수동),DG,대구광역시,A12726001,구민운동장내,대구광역시 수성구 범어동,가,녹지지역,166551,361444,35.8498197,128.6297213
EM,환경기준(수동),DG,대구광역시,A12726002,나야대령기념비,대구광역시 수성구 범어동,가,녹지지역,166940,361899,35.8539337,128.6340117
EM,환경기준(수동),DG,대구광역시,A12726003,청소년수련관앞,대구광역시 수성구 범어동,가,녹지지역,166781,360916,35.8450719,128.6322916
EM,환경기준(수동),DG,대구광역시,A12726004,국립대구박물관정문앞,대구광역시 수성구 범어동,가,녹지지역,167341,360788,35.8439331,128.6384994
EM,환경기준(수동),DG,대구광역시,A12726005,어린이대공원정문앞,대구광역시 수성구 범어동,가,녹지지역,166376,361093,35.8466467,128.627797
EM,환경기준(수동),DG,대구광역시,A12726006,이성의집앞,대구광역시 수성구 상동,나,일반주거지역,165134,360010,35.8368467,128.6141066
EM,환경기준(수동),DG,대구광역시,A12726007,춘천막국수앞(구. 박무웅집앞),대구광역시 수성구 상동,나,일반주거지역,164971,359936,35.836177,128.6123002
EM,환경기준(수동),DG,대구광역시,A12726008,백대현집앞,대구광역시 수성구 상동,나,일반주거지역,165024,360141,35.8380256,128.6128799
EM,환경기준(수동),DG,대구광역시,A12726009,경수약품㈜앞,대구광역시 수성구 상동,나,일반주거지역,164919,359654,35.8336343,128.6117398
EM,환경기준(수동),DG,대구광역시,A12726010,원음피아노앞,대구광역시 수성구 상동,나,일반주거지역,164978,360357,35.83997,128.6123659
EM,환경기준(수동),DG,대구광역시,A12729001,월성주공5단지내,대구광역시 달서구 본동,나,일반주거지역,157924,359498,35.8319524,128.5343315
EM,환경기준(수동),DG,대구광역시,A12729002,피터팬공원내,대구광역시 달서구 본동,나,일반주거지역,158425,359904,35.8356305,128.5398582
EM,환경기준(수동),DG,대구광역시,A12729003,그린맨션2차(아)내,대구광역시 달서구 본동,나,일반주거지역,158991,359924,35.8358386,128.5461149
EM,환경기준(수동),DG,대구광역시,A12729004,축협월성지점앞,대구광역시 달서구 본동,나,일반주거지역,158127,359833,35.8349788,128.5365588
EM,환경기준(수동),DG,대구광역시,A12729005,올림픽기념관정문앞,대구광역시 달서구 본동,나,일반주거지역,158488,359629,35.8331523,128.5405628
EM,환경기준(수동),DG,대구광역시,A12729006,현대몰드변압기앞,대구광역시 달서구 갈산동,라,일반공업지역,155013,360672,35.8423987,128.502049
EM,환경기준(수동),DG,대구광역시,A12729007,수안산업앞,대구광역시 달서구 갈산동,라,일반공업지역,154618,360523,35.8410383,128.4976849
EM,환경기준(수동),DG,대구광역시,A12729008,미진섬유앞,대구광역시 달서구 갈산동,라,일반공업지역,154391,360072,35.8369691,128.4951958
EM,환경기준(수동),DG,대구광역시,A12729009,한국OSG앞,대구광역시 달서구 갈산동,라,일반공업지역,154422,359967,35.8360185,128.4955432
EM,환경기준(수동),DG,대구광역시,A12729010,진흥섬유앞,대구광역시 달서구 갈산동,라,일반공업지역,154856,360315,35.8391761,128.5003282
EM,환경기준(수동),DG,대구광역시,B12717001,서구 평리4동 1337-1,대구광역시 서구 평리동,나,일반주거지역,340836.1,264197.3,35.867862704339856,128.56015252346975
EM,환경기준(수동),DG,대구광역시,B12717002,서구 평리4동 1316-3,대구광역시 서구 평리동,나,일반주거지역,340717.82,263992.68,35.86603620339301,128.55880725186105
EM,환경기준(수동),DG,대구광역시,B12717003,서구 평리4동 1320-10,대구광역시 서구 평리동,나,일반주거지역,340666.15,264120.32,35.86719356388579,128.55825781947388
EM,환경기준(수동),DG,대구광역시,B12717004,서구 평리4동 1191-26,대구광역시 서구 평리동,나,일반주거지역,341110.58,264394.17,35.86959687627366,128.56322530530468
EM,환경기준(수동),DG,대구광역시,B12717005,서구 평리4동 1359-2,대구광역시 서구 평리동,나,일반주거지역,340641.92,263767.37,35.864017187666626,128.55792754709296
EM,환경기준(수동),DG,대구광역시,B12717006,서구 중리동 1061,대구광역시 서구 중리동,라,일반공업지역,339117.092,264140.252,35.8675939006929,128.54111591421187
EM,환경기준(수동),DG,대구광역시,B12717007,서구 중리동 1117,대구광역시 서구 중리동,라,일반공업지역,338915.001,263860.752,35.86510444020566,128.5388304960141
EM,환경기준(수동),DG,대구광역시,B12717008,서구 중리동 1154,대구광역시 서구 중리동,라,일반공업지역,339008.274,263540.979,35.86221032963709,128.5398072142581
EM,환경기준(수동),DG,대구광역시,B12717009,서구 중리동 1101,대구광역시 서구 중리동,라,일반공업지역,339325.002,263852.957,35.86497610278318,128.54336703865872
EM,환경기준(수동),DG,대구광역시,B12717010,서구 중리동 1090,대구광역시 서구 중리동,라,일반공업지역,339333.093,264089.957,35.86711014260149,128.5434979162283
EM,환경기준(수동),DG,대구광역시,B12720001,남구 대명5동 317-1,대구광역시 남구 대명동,가,종합병원지역,343270.72,261976.422,35.847502356719204,128.5867013024447
EM,환경기준(수동),DG,대구광역시,B12720002,남구 대명5동 1737-6,대구광역시 남구 대명동,가,종합병원지역,343026.74,261923.559,35.84706166444891,128.58399211776427
EM,환경기준(수동),DG,대구광역시,B12720003,남구 대명5동 310-1,대구광역시 남구 대명동,가,종합병원지역,343213.47,261728.46,35.84527680349231,128.58602339880505
EM,환경기준(수동),DG,대구광역시,B12720004,남구 대명5동 51-3,대구광역시 남구 대명동,가,종합병원지역,343454.22,261842.73,35.84627116836169,128.58870785063596
EM,환경기준(수동),DG,대구광역시,B12720005,남구 대명2동 1854-7,대구광역시 남구 대명동,가,종합병원지역,343303.05,262153.61,35.849093888582,128.5870907724722
EM,환경기준(수동),DG,대구광역시,B12720006,남구 대명6동 948-7,대구광역시 남구 대명동,나,일반주거지역,341751.434,260738.873,35.83657355614776,128.56967046787733
EM,환경기준(수동),DG,대구광역시,B12720007,남구 대명6동 1037-5,대구광역시 남구 대명동,나,일반주거지역,341476.547,260670.285,35.83599525289902,128.56661701853528
EM,환경기준(수동),DG,대구광역시,B12720008,남구 대명6동 1048-3,대구광역시 남구 대명동,나,일반주거지역,341487.161,260906.285,35.838119881047504,128.5667761766786
EM,환경기준(수동),DG,대구광역시,B12720009,남구 대명6동 1094-3,대구광역시 남구 대명동,나,일반주거지역,341299.09,260842.604,35.837573238383285,128.5646840799631
EM,환경기준(수동),DG,대구광역시,B12720010,남구 대명6동 1089-13,대구광역시 남구 대명동,나,일반주거지역,341316.678,260637.602,35.835723809459594,128.56484247031747
EM,환경기준(수동),DG,대구광역시,B12726001,수성구 범어4동 100-50,대구광역시 수성구 범어동,가,학교지역,347809.865,262996.744,35.85602163898527,128.637116320995
EM,환경기준(수동),DG,대구광역시,B12726002,수성구 범어4동 271-71,대구광역시 수성구 범어동,가,학교지역,347733.521,262876.512,35.85494997772396,128.63624925970086
EM,환경기준(수동),DG,대구광역시,B12726003,수성구 범어4동 303,대구광역시 수성구 범어동,가,학교지역,347736.316,262742.503,35.853742299497156,128.63625541898824
EM,환경기준(수동),DG,대구광역시,B12726004,수성구 범어4동 100-61,대구광역시 수성구 범어동,가,학교지역,347919.46,263013.99,35.85616054081286,128.63833232381725
EM,환경기준(수동),DG,대구광역시,B12726005,수성구 범어4동 98-8,대구광역시 수성구 범어동,가,학교지역,347936.64,262873.51,35.854892351446345,128.63849647821215
EM,환경기준(수동),DG,대구광역시,B12726006,수성구 범어3동 21-1,대구광역시 수성구 범어동,다,상업지역,346730.42,263845.53,35.863830132813625,128.62532668818542
EM,환경기준(수동),DG,대구광역시,B12726007,수성구 범어3동 32-5,대구광역시 수성구 범어동,다,상업지역,346737.25,263707.59,35.86258641597953,128.6253769324724
EM,환경기준(수동),DG,대구광역시,B12726008,수성구 범어3동 8-10,대구광역시 수성구 범어동,다,상업지역,346665.19,264100.1,35.866133267817375,128.62465149407274
EM,환경기준(수동),DG,대구광역시,B12726009,수성구 범어3동 27-13,대구광역시 수성구 범어동,다,상업지역,346617.682,263588.985,35.86153581054916,128.62403190957335
EM,환경기준(수동),DG,대구광역시,B12726010,수성구 범어3동 33-21,대구광역시 수성구 범어동,다,상업지역,346844.023,263598.914,35.8615914316269,128.62653867425078
EM,환경기준(수동),DG,대구광역시,B12729001,달서구 월성동 1381,대구광역시 달서구 월성동,나,일반주거지역,337684.695,258697.625,35.81876151377019,128.52432465348502
EM,환경기준(수동),DG,대구광역시,B12729002,달서구 월성동 1310-5,대구광역시 달서구 진천동,나,일반주거지역,338021.95,258671.25,35.8184766302,128.5280507051
EM,환경기준(수동),DG,대구광역시,B12729003,달서구 진천동 561-13,대구광역시 달서구 진천동,나,일반주거지역,337708.6,258496.16,35.816943118,128.5245544454
EM,환경기준(수동),DG,대구광역시,B12729004,달서구 월성동 1396-3,대구광역시 달서구 월성동,나,일반주거지역,337506.408,258784.848,35.81957228714119,128.52236746717765
EM,환경기준(수동),DG,대구광역시,B12729005,달서구 진천동 42-2,대구광역시 달서구 진천동,나,일반주거지역,338335.621,258490.991,35.81680851593883,128.53148927433
EM,환경기준(수동),DG,대구광역시,B12729006,달서구 갈산동 100-150,대구광역시 달서구 갈산동,라,일반공업지역,155.71,260.91,35.8473591296,128.510362988
EM,환경기준(수동),DG,대구광역시,B12729007,달서구 장기동 180-52,대구광역시 달서구 장기동,라,일반공업지역,336749.505,261889.816,35.847651682761686,128.51452532781698
EM,환경기준(수동),DG,대구광역시,B12729008,달서구 장동 333-35,대구광역시 달서구 장동,라,일반공업지역,336470.003,261527.432,35.84442570024124,128.5113705872776
EM,환경기준(수동),DG,대구광역시,B12729009,달서구 장동 333-62,대구광역시 달서구 장동,라,일반공업지역,336764.928,261379.612,35.84305292377867,128.514608748828
EM,환경기준(수동),DG,대구광역시,B12729010,달서구 갈산동 100-76,대구광역시 달서구 갈산동,라,일반공업지역,336240.89,261445.527,35.84371959142512,128.50882142695258
RV,도로교통소음(이동),DG,대구광역시,F12711001,대봉동,대구광역시 중구 대봉동,,상업지역,164194,362763,35.86159134441733,128.6035776307342
RV,도로교통소음(이동),DG,대구광역시,F12714001,신천동,대구광역시 동구 신천동,,상업지역,166460,364317,35.8757139547672,128.62893455092672
RV,도로교통소음(이동),DG,대구광역시,F12717001,이현동,대구광역시 서구 이현동,,공업지역,339040.302,264881.818,35.87428570566975,128.54039504992136
RV,도로교통소음(이동),DG,대구광역시,F12720001,대명동,대구광역시 남구 대명동,,주거지역,342079.018,261281.684,35.84141648809887,128.57339123559981
RV,도로교통소음(이동),DG,대구광역시,F12723001,노원동,대구광역시 북구 노원동1가,,공업지역,340236.78,266830.26,35.8916692178,128.553981433
RV,도로교통소음(이동),DG,대구광역시,F12726001,황금동,대구광역시 수성구 황금동,,주거지역,346733.273,262143.522,35.8484965566398,128.625045829455
EA,환경기준(자동),DJ,대전광역시,A03011002,청주식당 앞,대전광역시 동구 가양동,나,일반주거지역,239693,416151,36.3425945,127.4422275
EA,환경기준(자동),DJ,대전광역시,A03011003,큰솔아파트 맞은편,대전광역시 동구 가양동,나,일반주거지역,240518,416644,36.3469719,127.4518676
EA,환경기준(자동),DJ,대전광역시,A03011004,맘스터치 앞,대전광역시 동구 가양동,나,일반주거지역,240454,416721,36.3478759,127.4509488
EA,환경기준(자동),DJ,대전광역시,A03011005,천광교회 옆,대전광역시 동구 대동,나,일반주거지역,240197,414188,36.3247225,127.4476516
EA,환경기준(자동),DJ,대전광역시,A03011006,대동펜타뷰아파트 정문 건너편,대전광역시 동구 대동,나,일반주거지역,240086,414331,36.3261195,127.446436
EA,환경기준(자동),DJ,대전광역시,A03011007,용운도서관 앞,대전광역시 동구 용운동,가,학교지역,241725,414230,36.3256968,127.4638409
EA,환경기준(자동),DJ,대전광역시,A03011008,용운초등학교 건너편,대전광역시 동구 용운동,가,학교지역,241693,414440,36.3262576,127.4637783
EA,환경기준(자동),DJ,대전광역시,A03011009,문충사 앞,대전광역시 동구 용운동,나,일반주거지역,241285,414100,36.3243111,127.459865
EA,환경기준(자동),DJ,대전광역시,A03011010,한희수 개성만두 앞,대전광역시 동구 용전동,나,일반주거지역,268943,417875,36.3583144,127.4340543
EA,환경기준(자동),DJ,대전광역시,A03011011,초대교회 앞,대전광역시 동구 용전동,나,일반주거지역,239151,417977,36.3589956,127.4361768
EA,환경기준(자동),DJ,대전광역시,A03011012,대전우체국 좌측편,대전광역시 동구 원동,다,상업지역,239048,414412,36.3270364,127.4346484
EA,환경기준(자동),DJ,대전광역시,A03011013,중앙시장공용주차장빌딩 옆,대전광역시 동구 원동,다,상업지역,238891,414470,36.3274317,127.4327547
EA,환경기준(자동),DJ,대전광역시,A03011014,홍주네식당 앞,대전광역시 동구 인동,나,일반주거지역,239369,413722,36.3209842,127.4384547
EA,환경기준(자동),DJ,대전광역시,A03011015,인동 성결교회 앞,대전광역시 동구 인동,나,일반주거지역,239411,413784,36.3211034,127.4392757
EA,환경기준(자동),DJ,대전광역시,A03011016,나날요양원 앞,대전광역시 동구 중동,다,상업지역,238694,414884,36.3311771,127.4307906
EA,환경기준(자동),DJ,대전광역시,A03011017,청춘다락 앞,대전광역시 동구 중동,다,상업지역,238525,414949,36.3317172,127.4291349
EA,환경기준(자동),DJ,대전광역시,A03011018,온누리교회 우측,대전광역시 동구 판암동,나,일반주거지역,241104,413705,36.3205605,127.4575654
EA,환경기준(자동),DJ,대전광역시,A03011019,스위트빌 앞,대전광역시 동구 홍도동,나,일반주거지역,238574,416721,36.3477743,127.4296148
EA,환경기준(자동),DJ,대전광역시,A03011020,청룡아파트 1동 앞,대전광역시 동구 홍도동,나,일반주거지역,238441,416626,36.3468881,127.4278588
EA,환경기준(자동),DJ,대전광역시,A03014001,LG텔레콤 앞,대전광역시 중구 중촌동,가,종합병원지역,236842,415503,36.3368729212,127.4103569984
EA,환경기준(자동),DJ,대전광역시,A03014002,은혜요양병원 앞,대전광역시 중구 대사동,나,일반주거지역,237429,413534,36.319321,127.4170995
EA,환경기준(자동),DJ,대전광역시,A03014003,신일이용원 앞,대전광역시 중구 대사동,나,일반주거지역,238648,413497,36.3182142,127.4292311
EA,환경기준(자동),DJ,대전광역시,A03014004,국토정보공사 대전동부지사 우측,대전광역시 중구 대사동,나,일반주거지역,237437,413619,36.3199291,127.4170438
EA,환경기준(자동),DJ,대전광역시,A03014006,반도빌라 건너편,대전광역시 중구 목동,가,종합병원지역,236774,415419,36.3360191,127.4095208
EA,환경기준(자동),DJ,대전광역시,A03014007,문화2동우체국 앞,대전광역시 중구 문화동,나,일반주거지역,235848,412278,36.3078174,127.3994223
EA,환경기준(자동),DJ,대전광역시,A03014009,대전서문교회 입구,대전광역시 중구 문화동,나,일반주거지역,236102,412657,36.3113405,127.4021469
EA,환경기준(자동),DJ,대전광역시,A03014010,보창한의원 건너편,대전광역시 중구 산성동,나,일반주거지역,234623,411902,36.304366,127.3854948
EA,환경기준(자동),DJ,대전광역시,A03014011,동양빌라3동 앞,대전광역시 중구 산성동,나,일반주거지역,234509,411752,36.3030738,127.383954
EA,환경기준(자동),DJ,대전광역시,A03014012,중촌 경희한의원 앞,대전광역시 중구 선화동,다,상업지역,237443,415367,36.3354707,127.4168946
EA,환경기준(자동),DJ,대전광역시,A03014013,CU편의점 앞,대전광역시 중구 선화동,다,상업지역,237470,415277,36.3344172,127.4175229
EA,환경기준(자동),DJ,대전광역시,A03014014,용인빌라 앞,대전광역시 중구 선화동,나,일반주거지역,237443,414967,36.3319404,127.4171169
EA,환경기준(자동),DJ,대전광역시,A03014016,새하늘교회 앞,대전광역시 중구 오류동,나,일반주거지역,236194,414406,36.3271431,127.4034263
EA,환경기준(자동),DJ,대전광역시,A03014017,보성빌딩 앞,대전광역시 중구 오류동,다,상업지역,236353,413863,36.3221312,127.404684
EA,환경기준(자동),DJ,대전광역시,A03014018,오류어린이공원 앞,대전광역시 중구 오류동,나,일반주거지역,236260,414408,36.3267523,127.4038692
EA,환경기준(자동),DJ,대전광역시,A03014019,삼성아파트 8동 건너편,대전광역시 중구 오류동,다,상업지역,236444,413872,36.3221356,127.4057465
EA,환경기준(자동),DJ,대전광역시,A03014020,충일교회 앞,대전광역시 중구 옥계동,나,일반주거지역,240783,411394,36.3004391,127.4539927
EA,환경기준(자동),DJ,대전광역시,A03014021,옥계동 솔빛아파트 101동 앞,대전광역시 중구 옥계동,나,일반주거지역,240864,411371,36.2992082,127.454637
EA,환경기준(자동),DJ,대전광역시,A03014022,더 할인마트 앞,대전광역시 중구 선화동,다,상업지역,237251,414029,36.3235691,127.414445
EA,환경기준(자동),DJ,대전광역시,A03014023,마라본공원 건너편,대전광역시 중구 유천동,나,일반주거지역,235420,413689,36.3204444,127.3943406
EA,환경기준(자동),DJ,대전광역시,A03014024,대전 출입국 사무소 앞,대전광역시 중구 중촌동,가,종합병원지역,236942,415463,36.3366293,127.4109977
EA,환경기준(자동),DJ,대전광역시,A03014025,하나로정육식당 건너편,대전광역시 중구 태평동,나,일반주거지역,235218,414370,36.3268005,127.3923211
EA,환경기준(자동),DJ,대전광역시,A03014026,삼부4단지아파트 410동 뒷편,대전광역시 중구 태평동,나,일반주거지역,235109,413819,36.3222288,127.392018
EA,환경기준(자동),DJ,대전광역시,A03014027,드림교회 앞,대전광역시 중구 태평동,나,일반주거지역,235276,414487,36.327905,127.3929407
EA,환경기준(자동),DJ,대전광역시,A03014028,예은축산 맞은편,대전광역시 중구 안영동,나,일반주거지역,234179,409830,36.2856083,127.3804344
EA,환경기준(자동),DJ,대전광역시,A03014029,김밥나라 문화2호점,대전광역시 중구 문화동,나,일반주거지역,238409,413651,36.313594,127.4047589
EA,환경기준(자동),DJ,대전광역시,A03017001,상록스토아 앞,대전광역시 서구 둔산동,나,일반주거지역,235112,418310,36.3621397343,127.3912167549
EA,환경기준(자동),DJ,대전광역시,A03017002,유진투자증권 앞,대전광역시 서구 둔산동,다,상업지역,234225,417085,36.3510627498,127.3812818527
EA,환경기준(자동),DJ,대전광역시,A03017004,새소망교회 좌측,대전광역시 서구 가수원동,나,일반주거지역,231650,411376,36.2997398,127.352353
EA,환경기준(자동),DJ,대전광역시,A03017005,가수원경로당 앞,대전광역시 서구 가수원동,나,일반주거지역,231753,411470,36.3007522,127.3530783
EA,환경기준(자동),DJ,대전광역시,A03017006,S-OIL 건너편,대전광역시 서구 가장동,나,일반주거지역,234533,414562,36.3285437,127.384766
EA,환경기준(자동),DJ,대전광역시,A03017007,성경빌딩 앞,대전광역시 서구 갈마동,나,일반주거지역,233161,417266,36.3530158,127.3694922
EA,환경기준(자동),DJ,대전광역시,A03017008,우정빌라 앞,대전광역시 서구 갈마동,나,일반주거지역,233049,416742,36.3481677,127.368073
EA,환경기준(자동),DJ,대전광역시,A03017009,성호빌라 뒷편,대전광역시 서구 갈마동,나,일반주거지역,232972,416845,36.34908,127.3674462
EA,환경기준(자동),DJ,대전광역시,A03017010,건양대학교 주차장 앞,대전광역시 서구 관저동,가,종합병원지역,230764,411728,36.306642,127.342613
EA,환경기준(자동),DJ,대전광역시,A03017011,관저2동 우체국 앞,대전광역시 서구 관저동,나,일반주거지역,229405,411187,36.2990563,127.3287537
EA,환경기준(자동),DJ,대전광역시,A03017012,우정유치원 건너편,대전광역시 서구 관저동,나,일반주거지역,229603,411106,36.2965935,127.3296198
EA,환경기준(자동),DJ,대전광역시,A03017013,올리브영 앞,대전광역시 서구 관저동,다,상업지역,230550,411264,36.2987107,127.3401855
EA,환경기준(자동),DJ,대전광역시,A03017014,어반힐스아파트 501동 앞,대전광역시 서구 관저동,나,일반주거지역,230910,410848,36.2948909,127.3427934
EA,환경기준(자동),DJ,대전광역시,A03017015,해뜰마을 어린이도서관 옆,대전광역시 서구 관저동,나,준주거지역,230370,411185,36.2980742,127.3382808
EA,환경기준(자동),DJ,대전광역시,A03017016,세븐일레븐 옆,대전광역시 서구 관저동,나,일반주거지역,230179,410913,36.2951308,127.3376748
EA,환경기준(자동),DJ,대전광역시,A03017017,건양대학교 입구 옆,대전광역시 서구 관저동,가,종합병원지역,230610,411858,36.3032469,127.3411129
EA,환경기준(자동),DJ,대전광역시,A03017018,서부농협 괴정지점 앞,대전광역시 서구 괴정동,나,일반주거지역,234428,415522,36.3372121,127.3834123
EA,환경기준(자동),DJ,대전광역시,A03017019,크린아이 맞은편,대전광역시 서구 괴정동,나,일반주거지역,234394,415588,36.3376797,127.383207
EA,환경기준(자동),DJ,대전광역시,A03017020,멕시칸 양념치킨 앞,대전광역시 서구 내동,나,일반주거지역,233671,414987,36.3323986,127.3751019
EA,환경기준(자동),DJ,대전광역시,A03017021,한빛교회 앞,대전광역시 서구 내동,나,일반주거지역,233511,415263,36.3348866,127.3734847
EA,환경기준(자동),DJ,대전광역시,A03017022,해성빌라 우측편,대전광역시 서구 도마동,나,일반주거지역,233557,413659,36.3205116,127.3738069
EA,환경기준(자동),DJ,대전광역시,A03017023,참동물병원 앞,대전광역시 서구 도마동,나,일반주거지역,234037,413150,36.3157591,127.379119
EA,환경기준(자동),DJ,대전광역시,A03017024,대림아파트1동 앞,대전광역시 서구 도마동,나,일반주거지역,233671,413630,36.3202231,127.3748249
EA,환경기준(자동),DJ,대전광역시,A03017025,도마1동 행정복지센터 앞,대전광역시 서구 도마동,나,일반주거지역,234179,413159,36.3158059,127.3808437
EA,환경기준(자동),DJ,대전광역시,A03017026,초록마을 옆,대전광역시 서구 도안동,나,일반주거지역,230881,413610,36.3199772,127.3438002
EA,환경기준(자동),DJ,대전광역시,A03017027,해영우빌딩 앞,대전광역시 서구 도안동,나,일반주거지역,230780,413648,36.319687,127.3420738
EA,환경기준(자동),DJ,대전광역시,A03017028,윗용소어린이공원,대전광역시 서구 도안동,나,일반주거지역,231388,412287,36.3080022,127.3495577
EA,환경기준(자동),DJ,대전광역시,A03017029,샘머리아파트 222동 앞,대전광역시 서구 둔산동,나,일반주거지역,235524,418133,36.3613831,127.393385
EA,환경기준(자동),DJ,대전광역시,A03017030,샘머리2단지 204동 옆,대전광역시 서구 둔산동,나,일반주거지역,235246,418309,36.3625274,127.3928022
EA,환경기준(자동),DJ,대전광역시,A03017031,현대해상 앞,대전광역시 서구 둔산동,다,상업지역,234362,417315,36.3532942,127.3826014
EA,환경기준(자동),DJ,대전광역시,A03017032,대대로 감자탕족발 건너편,대전광역시 서구 둔산동,다,상업지역,234871,417969,36.3589924,127.388141
EA,환경기준(자동),DJ,대전광역시,A03017033,대전청사 자연마당 앞,대전광역시 서구 둔산동,다,상업지역,234701,417847,36.3587459,127.3848849
EA,환경기준(자동),DJ,대전광역시,A03017034,늘푸른약국 건너편,대전광역시 서구 둔산동,다,상업지역,234187,417431,36.3541176,127.3809727
EA,환경기준(자동),DJ,대전광역시,A03017035,만년고교 뒷편,대전광역시 서구 만년동,가,학교지역,233515,418983,36.3672757,127.3735349
EA,환경기준(자동),DJ,대전광역시,A03017036,귀뚜라미보일러 앞,대전광역시 서구 변동,나,일반주거지역,233217,414651,36.3292045,127.3699281
EA,환경기준(자동),DJ,대전광역시,A03017037,궁전하이츠 옆,대전광역시 서구 변동,나,일반주거지역,233200,414755,36.3303577,127.3698597
EA,환경기준(자동),DJ,대전광역시,A03017038,한빛순복음교회 옆,대전광역시 서구 변동,나,일반주거지역,234616,414433,36.3274418,127.385542
EA,환경기준(자동),DJ,대전광역시,A03017039,센트럴자이 101동 앞,대전광역시 서구 복수동,나,일반주거지역,233345,412193,36.3067526,127.3729334
EA,환경기준(자동),DJ,대전광역시,A03017040,한밭주택 옆,대전광역시 서구 복수동,나,일반주거지역,233797,412479,36.3096344,127.3763893
EA,환경기준(자동),DJ,대전광역시,A03017041,새싹 어린이집 건너편,대전광역시 서구 용문동,나,일반주거지역,235342,415213,36.3339935,127.3935785
EA,환경기준(자동),DJ,대전광역시,A03017042,용문빌리지 옆,대전광역시 서구 용문동,나,일반주거지역,235276,415136,36.333739,127.392989
EA,환경기준(자동),DJ,대전광역시,A03017043,하나로아파트 110동 옆,대전광역시 서구 월평동,나,일반주거지역,232768,418309,36.3620173,127.3669292
EA,환경기준(자동),DJ,대전광역시,A03017044,월평2동우체국 앞,대전광역시 서구 월평동,나,일반주거지역,233534,418445,36.363557,127.3736728
EA,환경기준(자동),DJ,대전광역시,A03017045,부일지업사 앞,대전광역시 서구 월평동,나,일반주거지역,232374,417636,36.3563398,127.3607838
EA,환경기준(자동),DJ,대전광역시,A03017046,용문오토바이 앞,대전광역시 서구 월평동,나,일반주거지역,232305,417685,36.3558909,127.3600318
EA,환경기준(자동),DJ,대전광역시,A03017047,정림초교 건너편,대전광역시 서구 정림동,나,일반주거지역,232852,411801,36.3034815,127.3645633
EA,환경기준(자동),DJ,대전광역시,A03017048,뉴딜사업 현장지원센터 앞,대전광역시 서구 정림동,나,일반주거지역,233004,411672,36.3025624,127.3676595
EA,환경기준(자동),DJ,대전광역시,A03017049,아프리카 동물 메디컬센터 앞,대전광역시 서구 탄방동,나,준주거지역,234265,416472,36.3454705,127.3817274
EA,환경기준(자동),DJ,대전광역시,A03017050,아이수안경 앞,대전광역시 서구 탄방동,나,준주거지역,234901,416578,36.3464117,127.3889658
EA,환경기준(자동),DJ,대전광역시,A03017051,개나리아파트 106동 뒷편,대전광역시 서구 탄방동,나,준주거지역,,,36.3453848,127.3822372
EA,환경기준(자동),DJ,대전광역시,A03017052,두울샤브칼국수 앞,대전광역시 서구 탄방동,나,준주거지역,234952,416501,36.3457982,127.3895488
EA,환경기준(자동),DJ,대전광역시,A03017053,도안린풀하우스18단지 정문 앞,대전광역시 서구 도안동,나,일반주거지역,231329,412306,36.3107281,127.3493708
EA,환경기준(자동),DJ,대전광역시,A03020001,열매마을7단지 정문,대전광역시 유성구,나,일반주거지역,228914,419395,36.37342411,127.3209129
EA,환경기준(자동),DJ,대전광역시,A03020003,케이벨 우측 도로변,대전광역시 유성구 관평동,다,준공업지역,234957,425978,36.4318978,127.389878
EA,환경기준(자동),DJ,대전광역시,A03020004,대덕테크노밸리 5단지 501동 옆,대전광역시 유성구 관평동,나,일반주거지역,234710,424875,36.4200613,127.3872888
EA,환경기준(자동),DJ,대전광역시,A03020005,더클래식 빌딩 앞,대전광역시 유성구 용산동,나,준주거지역,235548,425002,36.4220911,127.3970486
EA,환경기준(자동),DJ,대전광역시,A03020006,교촌빌딩 건너편,대전광역시 유성구 교촌동,나,일반주거지역,228528,411774,36.3036239,127.3174721
EA,환경기준(자동),DJ,대전광역시,A03020007,진잠향교 옆,대전광역시 유성구 교촌동,나,일반주거지역,228315,411763,36.3035814,127.31524
EA,환경기준(자동),DJ,대전광역시,A03020008,농수산도매시장 제2문 우측편,대전광역시 유성구 노은동,다,상업지역,225843,418530,36.3651199,127.3202617
EA,환경기준(자동),DJ,대전광역시,A03020009,성산수도원 입구,대전광역시 유성구 반석동,가,녹지지역,228223,421780,36.3941286,127.3153217
EA,환경기준(자동),DJ,대전광역시,A03020010,엘케이펩티모 앞,대전광역시 유성구 복용동,다,준공업지역,228912,415488,36.3373301,127.3221529
EA,환경기준(자동),DJ,대전광역시,A03020011,복용삼거리 앞,대전광역시 유성구 복용동,다,준공업지역,228727,415923,36.3407579,127.3201682
EA,환경기준(자동),DJ,대전광역시,A03020012,족욕체험장 건너편,대전광역시 유성구 봉명동,다,상업지역,230935,417480,36.3545584,127.3443206
EA,환경기준(자동),DJ,대전광역시,A03020014,구암어린이공원,대전광역시 유성구 봉명동,나,일반주거지역,230444,417058,36.3511082,127.3388702
EA,환경기준(자동),DJ,대전광역시,A03020015,휴먼시아4단지아파트 401동 앞,대전광역시 유성구 상대동,나,일반주거지역,230351,416478,36.345626,127.3374815
EA,환경기준(자동),DJ,대전광역시,A03020016,어은어린이공원 앞,대전광역시 유성구 어은동,나,일반주거지역,231901,418313,36.3626656,127.3553382
EA,환경기준(자동),DJ,대전광역시,A03020017,화로연담 옆,대전광역시 유성구 원신흥동,나,일반주거지역,230327,415271,36.3350018,127.3378301
EA,환경기준(자동),DJ,대전광역시,A03020018,두유빈스 앞,대전광역시 유성구 원신흥동,나,일반주거지역,230430,415610,36.3380648,127.3384252
EA,환경기준(자동),DJ,대전광역시,A03020019,장대초등학교 옆,대전광역시 유성구 장대동,나,일반주거지역,230349,418201,36.3617242,127.3395827
EA,환경기준(자동),DJ,대전광역시,A03020020,유성온천교회 앞,대전광역시 유성구 장대동,다,상업지역,229976,417947,36.3591978,127.3338812
EA,환경기준(자동),DJ,대전광역시,A03020021,창원빌라 앞,대전광역시 유성구 장대동,나,일반주거지역,230334,417969,36.3592052,127.3381053
EA,환경기준(자동),DJ,대전광역시,A03020022,장대노인회관 앞,대전광역시 유성구 장대동,다,상업지역,230126,417925,36.3590052,127.335522
EA,환경기준(자동),DJ,대전광역시,A03020023,엑스포유치원 앞,대전광역시 유성구 전민동,가,학교지역,236456,422396,36.3997344,127.4077359
EA,환경기준(자동),DJ,대전광역시,A03020024,포도과수원 앞,대전광역시 유성구 전민동,가,녹지지역,235488,423437,36.4083153,127.395732
EA,환경기준(자동),DJ,대전광역시,A03020025,롯데엑스포2단지 206동 뒷편,대전광역시 유성구 전민동,나,일반주거지역,236889,422718,36.399931,127.4106765
EA,환경기준(자동),DJ,대전광역시,A03020026,이서빌 우측,대전광역시 유성구 지족동,나,일반주거지역,227197,421020,36.3867287,127.3030699
EA,환경기준(자동),DJ,대전광역시,A03020027,열매마을대우3단지 307동 건너편,대전광역시 유성구 지족동,나,일반주거지역,228833,420109,36.378972,127.3196485
EA,환경기준(자동),DJ,대전광역시,A03020028,백억프라자 좌측,대전광역시 유성구 지족동,가,학교지역,227437,420107,36.3782468,127.30569
EA,환경기준(자동),DJ,대전광역시,A03020029,투썸플레이스 앞,대전광역시 유성구 지족동,나,준주거지역,228702,419596,36.3741938,127.3196823
EA,환경기준(자동),DJ,대전광역시,A03020030,커피가주차장 좌측,대전광역시 유성구 탑립동,가,녹지지역,235476,423511,36.4090351,127.3954911
EA,환경기준(자동),DJ,대전광역시,A03020031,배재대학교 산학협력단 건너편,대전광역시 유성구 송강동,나,일반주거지역,234758,426090,36.4324202,127.3873556
EA,환경기준(자동),DJ,대전광역시,A03023001,동대전산정현교회 앞,대전광역시 대덕구 법동,가,학교지역,238989,418673,36.3653536656,127.4343252182
EA,환경기준(자동),DJ,대전광역시,A03023002,삼양패키징 앞,대전광역시 대덕구 문평동,라,일반공업지역,236372,427827,36.4489866,127.404805
EA,환경기준(자동),DJ,대전광역시,A03023003,옥봉화학 정문 옆,대전광역시 대덕구 문평동,라,전용공업지역,235959,427872,36.4486467,127.401162
EA,환경기준(자동),DJ,대전광역시,A03023004,P&C 테크 앞,대전광역시 대덕구 신일동,라,일반공업지역,236815,427051,36.4405532,127.4110454
EA,환경기준(자동),DJ,대전광역시,A03023006,대창아파트 정문 우측,대전광역시 대덕구 상서동,라,일반공업지역,238137,425408,36.4264029,127.4252842
EA,환경기준(자동),DJ,대전광역시,A03023007,호수식당 맞은편,대전광역시 대덕구 평촌동,라,일반공업지역,238953,426616,36.4367153,127.4342955
EA,환경기준(자동),DJ,대전광역시,A03023008,삼진정밀 뒷편,대전광역시 대덕구 대화동,라,전용공업지역,236574,418947,36.3672466,127.4066628
EA,환경기준(자동),DJ,대전광역시,A03023009,대덕폐차사업소 맞은편,대전광역시 대덕구 대화동,라,전용공업지역,236802,418846,36.3681832,127.4101794
EA,환경기준(자동),DJ,대전광역시,A03023010,대일탕 앞,대전광역시 대덕구 대화동,나,일반주거지역,237332,418634,36.3650037,127.4160681
EA,환경기준(자동),DJ,대전광역시,A03023011,현대자동차대전대화대리점 앞,대전광역시 대덕구 대화동,나,일반주거지역,237618,418827,36.3668478,127.4190519
EA,환경기준(자동),DJ,대전광역시,A03023012,바우배기어린이공원 앞,대전광역시 대덕구 법동,나,일반주거지역,238105,419413,36.3725249,127.4248594
EA,환경기준(자동),DJ,대전광역시,A03023013,삼호아파트 2동 앞,대전광역시 대덕구 법동,나,일반주거지역,238202,419581,36.3729836,127.4256083
EA,환경기준(자동),DJ,대전광역시,A03023014,근로복지공단 대전병원 옆,대전광역시 대덕구 법동,가,종합병원지역,238452,418909,36.3672503,127.4283205
EA,환경기준(자동),DJ,대전광역시,A03023015,소통골 어린이공원(구 애경화장품),대전광역시 대덕구 법동,가,학교지역,238811,418843,36.3670119,127.4325668
EA,환경기준(자동),DJ,대전광역시,A03023016,대전양지초등학교 옆,대전광역시 대덕구 법동,가,학교지역,238968,418662,36.3653598,127.433692
EA,환경기준(자동),DJ,대전광역시,A03023017,대양빌라 103동 맞은편,대전광역시 대덕구 비래동,나,일반주거지역,240584,417622,36.355695,127.4522689
EA,환경기준(자동),DJ,대전광역시,A03023018,하버드사진관 앞,대전광역시 대덕구 비래동,나,일반주거지역,240429,417665,36.3561692,127.4505285
EA,환경기준(자동),DJ,대전광역시,A03023019,디에이치인테리어 앞,대전광역시 대덕구 송촌동,나,일반주거지역,240046,418310,36.3619772,127.4463147
EA,환경기준(자동),DJ,대전광역시,A03023020,송촌서오아파트 105동 옆,대전광역시 대덕구 송촌동,나,일반주거지역,239958,418062,36.3593948,127.4454806
EA,환경기준(자동),DJ,대전광역시,A03023021,럭키스포츠프라자 앞,대전광역시 대덕구 중리동,나,일반주거지역,237962,418748,36.3663083,127.4228347
EA,환경기준(자동),DJ,대전광역시,A03023022,볼보대리점 앞,대전광역시 대덕구 중리동,나,일반주거지역,237881,417924,36.3584231,127.4220506
EA,환경기준(자동),DJ,대전광역시,A03023023,해오름빌 앞,대전광역시 대덕구 중리동,나,일반주거지역,237900,417804,36.3574765,127.4221679
EA,환경기준(자동),DJ,대전광역시,A23011001,코인워시365 앞,대전광역시 동구 가양동,나,일반주거지역,239779,416169,36.34255596,127.44310028
EA,환경기준(자동),DJ,대전광역시,A23014030,대전동산고등학교 건너편,대전광역시 중구 문화동,가,학교지역,236405.15,413024.65,36.3145559091392,127.405382280237
R,도로교통소음,DJ,충청권,E13011001,판암동 아름다운교회,대전광역시 동구 판암동,가,녹지지역,241,313,36.3149167927,127.4617713439
R,도로교통소음,DJ,충청권,E13017001,도마동 효성타운,대전광역시 서구 도마동,가,주거지역,234,313,36.3101714214,127.3825780957
R,도로교통소음,DJ,충청권,E13023001,읍내동 백송아파트,대전광역시 대덕구 읍내동,가,주거지역,237,320,36.380398987,127.419787727
R,도로교통소음,DJ,충청권,E13023002,읍내동 현대아파트,대전광역시 대덕구 읍내동,가,주거지역,238,320,36.3787964743,127.4237933158
R,도로교통소음,DJ,충청권,E13023003,덕암동,대전광역시 대덕구 덕암동,가,주거지역,237,328,36.4468632713,127.416903858
R,도로교통소음,DJ,충청권,E13611001,황용고가_시작점,세종특별자치시 금남면 황용리,가,녹지지역,431677,229292,36.48288,127.3268
RV,도로교통소음(이동),DJ,대전광역시,F13014001,충남대부속병원 앞,대전광역시 중구 대사동,,주거지역,237322.338,313117.512,36.31811629044206,127.41641621853532
RV,도로교통소음(이동),DJ,대전광역시,F13014002,삼부아파트 앞,대전광역시 중구 태평동,,주거지역,235299.838,313710.512,36.323535937717025,127.39392140075631
RV,도로교통소음(이동),DJ,대전광역시,F13014003,갤러리아백화점 앞,대전광역시 중구 대흥동,,상업지역,238176,414556,36.328291436027015,127.42517362595119
RV,도로교통소음(이동),DJ,대전광역시,F13020001,호텔리베라 앞,대전광역시 유성구 봉명동,,상업지역,230376,417451,36.35465283464898,127.33842560045849
RV,도로교통소음(이동),DJ,대전광역시,F13023001,태평양화학 앞,대전광역시 대덕구 대화동,,공업지역,236787.297,318555.578,36.36714201114513,127.41071369839982
RV,도로교통소음(이동),DJ,대전광역시,F13023002,한국타이어 앞,대전광역시 대덕구 목상동,,공업지역,236835.797,327640.078,36.44900443760406,127.41168273793448
EA,환경기준(자동),BS,부산광역시,A02614002,주남혁소아과 앞,부산광역시 서구 부민동2가,가,종합병원지역,201796,278407,35.1019993593,129.019844115
EA,환경기준(자동),BS,부산광역시,A02614003,구덕운동장 동쪽,부산광역시 서구 동대신동3가,나,일반주거지역,201579,280014,35.1164386502,129.0173020859
EA,환경기준(자동),BS,부산광역시,A02626002,동래우체국 앞,부산광역시 동래구 명륜동,가,학교지역,207490,290298,35.20915060544887,129.08230278480707
EA,환경기준(자동),BS,부산광역시,A02647001,하나한의원 앞,부산광역시 연제구 연산동,나,일반주거지역,207382,286473,35.1746607759,129.0810200723
EA,환경기준(자동),BS,부산광역시,A02650002,대부자동차정비 앞,부산광역시 수영구 광안동,나,준주거지역,210460,285395,35.1649031515,129.1147726932
EA,환경기준(자동),BS,부산광역시,A22614004,동춘빌딩 앞,부산광역시 서구 동대신동1가,다,상업지역,384270,180910,35.107729,129.021111
EA,환경기준(자동),BS,부산광역시,A22614005,용인대정도태권도 앞,부산광역시 서구 동대신동1가,다,상업지역,384179,181031,35.108845,129.020098
EA,환경기준(자동),BS,부산광역시,A22614006,맛나 칼국수 앞,부산광역시 서구 부민동2가,가,종합병원지역,384164,180344,35.10264,129.019781
EA,환경기준(자동),BS,부산광역시,A22614007,서원탑훼미리마트 앞,부산광역시 서구 부민동2가,가,종합병원지역,384064,180283,35.102105,129.018692
EA,환경기준(자동),BS,부산광역시,A22623001,그린컴퓨터 앞,부산광역시 부산진구 부전동,다,상업지역,387652,186140,35.154238,129.059287
EA,환경기준(자동),BS,부산광역시,A22623002,한국전력공사 앞,부산광역시 부산진구 부전동,다,상업지역,387711,186046,35.153406,129.059938
EA,환경기준(자동),BS,부산광역시,A22623003,은성 인테리어 건너편,부산광역시 부산진구 연지동,나,일반주거지역,387197,188213,35.172951,129.054838
EA,환경기준(자동),BS,부산광역시,A22623004,초원 과메기 앞,부산광역시 부산진구 연지동,나,일반주거지역,387283,188097,35.171917,129.055593
EA,환경기준(자동),BS,부산광역시,A22626003,새동래 3차 5동 앞,부산광역시 동래구 수안동,나,일반주거지역,389964,190826,35.195969,129.085736
EA,환경기준(자동),BS,부산광역시,A22626004,수안동신맨션 앞,부산광역시 동래구 수안동,나,일반주거지역,389990,190960,35.197117,129.086036
EA,환경기준(자동),BS,부산광역시,A22629001,삼겹한마당 앞,부산광역시 남구 대연동,가,녹지지역,391133,183551,35.130265,129.095675
EA,환경기준(자동),BS,부산광역시,A22629002,해정아구찜 건너편,부산광역시 남구 대연동,가,녹지지역,391274,183462,35.129429,129.098432
EA,환경기준(자동),BS,부산광역시,A22629003,삼월할인마트 앞,부산광역시 남구 용호동,나,일반주거지역,392815,182864,35.123737,129.115198
EA,환경기준(자동),BS,부산광역시,A22629004,용호행복주택 아파트 앞,부산광역시 남구 용호동,나,일반주거지역,392809,182947,35.124527,129.115074
EA,환경기준(자동),BS,부산광역시,A22638007,푸라닭치킨 앞,부산광역시 사하구 괴정동,나,일반주거지역,380859,180073,35.100874,128.983419
EA,환경기준(자동),BS,부산광역시,A22638008,교촌치킨 앞,부산광역시 사하구 괴정동,나,일반주거지역,380845,179977,35.099911,128.983355
EA,환경기준(자동),BS,부산광역시,A22638009,대신화학 앞,부산광역시 사하구 신평동,라,전용공업지역,379361,178350,35.085583,128.966652
EA,환경기준(자동),BS,부산광역시,A22638011,브이에프테크 앞,부산광역시 사하구 신평동,라,전용공업지역,379433,178600,35.087783,128.967475
EA,환경기준(자동),BS,부산광역시,A22638012,카페토드 앞,부산광역시 사하구 신평동,나,일반주거지역,380227,178836,35.089796,128.976276
EA,환경기준(자동),BS,부산광역시,A22638013,덕성직물 앞,부산광역시 사하구 신평동,라,전용공업지역,378586,179275,35.094044,128.958476
EA,환경기준(자동),BS,부산광역시,A22638014,삼성인더스트리 앞,부산광역시 사하구 신평동,라,전용공업지역,378613,179354,35.094699,128.958712
EA,환경기준(자동),BS,부산광역시,A22638015,동매힐스 앞,부산광역시 사하구 신평동,나,일반주거지역,380043,178887,35.090231,128.974407
EA,환경기준(자동),BS,부산광역시,A22641001,제이케이 앞,부산광역시 금정구 금사동,다,준공업지역,392376,193092,35.215926,129.112751
EA,환경기준(자동),BS,부산광역시,A22641002,해남운수 앞,부산광역시 금정구 금사동,다,준공업지역,392475,193044,35.215474,129.113855
EA,환경기준(자동),BS,부산광역시,A22641003,남산역 1번출구 앞,부산광역시 금정구 남산동,나,일반주거지역,390383,198447,35.264471,129.0921
EA,환경기준(자동),BS,부산광역시,A22641004,경희빌리지 앞,부산광역시 금정구 남산동,나,일반주거지역,390233,198081,35.263915,129.09118
EA,환경기준(자동),BS,부산광역시,A22641005,용진 마이스터 앞,부산광역시 금정구 장전동,다,상업지역,389730,193934,35.224053,129.083921
EA,환경기준(자동),BS,부산광역시,A22641006,SJ타워 앞,부산광역시 금정구 장전동,다,상업지역,389865,193953,35.224109,129.085389
EA,환경기준(자동),BS,부산광역시,A22644001,아이에스동서 113동 건너편,부산광역시 강서구 명지동,가,전용주거지역,375376,179722,35.098669,128.923223
EA,환경기준(자동),BS,부산광역시,A22644002,현대자동차 앞,부산광역시 강서구 명지동,가,전용주거지역,375437,179691,35.098317,128.92397
EA,환경기준(자동),BS,부산광역시,A22644003,원레이져 앞,부산광역시 강서구 송정동,라,일반공업지역,369643,179138,35.094351,128.860373
EA,환경기준(자동),BS,부산광역시,A22644004,세광식품 앞,부산광역시 강서구 송정동,라,일반공업지역,369738,179060,35.093568,128.861408
EA,환경기준(자동),BS,부산광역시,A22647002,선진제경,부산광역시 연제구 연산동,가,학교지역,389875,189865,35.190008,129.085442
EA,환경기준(자동),BS,부산광역시,A22647003,연서초등학교 앞,부산광역시 연제구 연산동,가,학교지역,389973,189857,35.190052,129.086556
EA,환경기준(자동),BS,부산광역시,A22647004,본헤어 앞,부산광역시 연제구 연산동,나,일반주거지역,389794,188514,35.175206,129.083359
EA,환경기준(자동),BS,부산광역시,A22647005,옛동산빌 앞,부산광역시 연제구 연산동,나,일반주거지역,389783,188652,35.176404,129.083241
EA,환경기준(자동),BS,부산광역시,A22647006,단아식당 앞,부산광역시 연제구 연산동,나,준주거지역,390818,190041,35.188733,129.0949
EA,환경기준(자동),BS,부산광역시,A22647007,연제타워 앞,부산광역시 연제구 연산동,나,준주거지역,390834,190093,35.189283,129.094976
EA,환경기준(자동),BS,부산광역시,A22650003,광안럭스빌 앞,부산광역시 수영구 광안동,나,준주거지역,393033,187265,35.163346,129.118606
EA,환경기준(자동),BS,부산광역시,A22650004,흑석하이츠,부산광역시 수영구 광안동,나,일반주거지역,392577,184671,35.158833,129.11427
EA,환경기준(자동),BS,부산광역시,A22650005,금우자동차,부산광역시 수영구 광안동,나,준주거지역,393007,186992,35.163665,129.11915
EA,환경기준(자동),BS,부산광역시,A22650006,송월타월 앞,부산광역시 수영구 광안동,나,일반주거지역,392677,186531,35.1568,129.1145
EA,환경기준(자동),BS,부산광역시,A22653001,골드펌프 앞,부산광역시 사상구 감전동,라,일반공업지역,379633,185192,35.147101,128.971245
EA,환경기준(자동),BS,부산광역시,A22653002,타이어테크 감전점,부산광역시 사상구 감전동,라,일반공업지역,379445,184671,35.145124,128.969756
EA,환경기준(자동),BS,부산광역시,A22653003,동진석유(주) 앞,부산광역시 사상구 덕포동,다,준공업지역,380953,188944,35.180609,128.986438
EA,환경기준(자동),BS,부산광역시,A22653005,SMDV 고객전용주차장 앞,부산광역시 사상구 삼락동,나,일반주거지역,380836,190440,35.194196,128.985457
EA,환경기준(자동),BS,부산광역시,A22653006,SMDV 앞,부산광역시 사상구 삼락동,나,일반주거지역,380811,190487,35.194679,128.985315
EA,환경기준(자동),BS,부산광역시,A22653007,새신신고 앞,부산광역시 사상구 모라동,다,준공업지역,381005,188986,35.181083,128.986795
EA,환경기준(자동),BS,부산광역시,A22671001,한신 M-tech 앞,부산광역시 기장군 정관면 달산리,라,일반공업지역,398084,204108,35.313977,129.176828
EA,환경기준(자동),BS,부산광역시,A22671002,한솔그린 앞,부산광역시 기장군 정관면 달산리,라,일반공업지역,397974,204078,35.31404,129.178024
EM,환경기준(수동),BS,부산광역시,B12611001,중구2(동상 앞),부산광역시 중구 영주동,가,녹지지역,384854.74,181050.13,35.1116238898663,129.02839492004213
EM,환경기준(수동),BS,부산광역시,B12611002,중구3(도서관 앞),부산광역시 중구 영주동,가,녹지지역,384721.35,180907.37,35.1103622984789,129.02690086711127
EM,환경기준(수동),BS,부산광역시,B12611003,중구1(충혼탑입구),부산광역시 중구 영주동,가,녹지지역,384856.46,181188.1,35.11286641452155,129.02844459897673
EM,환경기준(수동),BS,부산광역시,B12611004,중구4(시민아파트 앞),부산광역시 중구 영주동,가,녹지지역,384967.33,181348.96,35.11429505958647,129.02969581858724
EM,환경기준(수동),BS,부산광역시,B12611005,중구5(시민헌장 앞),부산광역시 중구 영주동,가,녹지지역,384845.5,181123.08,35.11228269906338,129.02830989377102
EM,환경기준(수동),BS,부산광역시,B12620001,영도구1(영도종합상가 앞),부산광역시 영도구 남항동1가,다,준공업지역,385787.51,178459.58,35.088117039175884,129.0380400325861
EM,환경기준(수동),BS,부산광역시,B12620002,영도구2(유성티엠주식회사 앞),부산광역시 영도구 남항동1가,다,준공업지역,385704.7,178253.77,35.08627835577116,129.03708636833665
EM,환경기준(수동),BS,부산광역시,B12620003,영도구3(신한아파트 앞),부산광역시 영도구 남항동1가,다,준공업지역,385624.7,178334.78,35.08702283988205,129.03622785465666
EM,환경기준(수동),BS,부산광역시,B12620004,영도구4(카이스트안경 앞),부산광역시 영도구 남항동1가,다,준공업지역,385803.9,178613.61,35.089501501089686,129.03825413436277
EM,환경기준(수동),BS,부산광역시,B12620005,영도구5(구 남항새마을금고 앞),부산광역시 영도구 남항동1가,다,준공업지역,385849.72,178492.39,35.08840115866188,129.03872909662732
EM,환경기준(수동),BS,부산광역시,B12623001,부산진구3(인제대학교 부산캠퍼스 뒤) ,부산광역시 부산진구 개금동,가,종합병원지역,384046.25,184781.53,35.14538406792652,129.02036107026092
EM,환경기준(수동),BS,부산광역시,B12623002,부산진구2(고원아파트1동 107동 앞),부산광역시 부산진구 개금동,가,종합병원지역,384176.17,184813.395,35.145647365824566,129.0217929794128
EM,환경기준(수동),BS,부산광역시,B12623003,부산진구1(하성약국 옆),부산광역시 부산진구 개금동,가,종합병원지역,384137.263,184905.088,35.14648044327984,129.02138669721674
EM,환경기준(수동),BS,부산광역시,B12623004,부산진구4(개금2동새마을금고 앞),부산광역시 부산진구 개금동,가,종합병원지역,383990.077,184829.232,35.14582402036894,129.01975564131408
EM,환경기준(수동),BS,부산광역시,B12623005,부산진구5(주원초등학교 앞),부산광역시 부산진구 개금동,가,종합병원지역,384010.941,184981.091,35.14718815302656,129.0200182147699
EM,환경기준(수동),BS,부산광역시,B12626001,동래구1(고깃리88번지 사직점 앞),부산광역시 동래구 사직동,나,일반주거지역,387454.03,190557.14,35.19678082441798,129.0590429152585
EM,환경기준(수동),BS,부산광역시,B12626002,동래구2(남다른대구막창 앞),부산광역시 동래구 사직동,나,일반주거지역,387372.29,190533.99,35.19658754233396,129.05814065561265
EM,환경기준(수동),BS,부산광역시,B12626003,동래구3(쌍용예가 107동 앞),부산광역시 동래구 사직동,나,일반주거지역,387252.35,190503.99,35.19633967177673,129.0568177836571
EM,환경기준(수동),BS,부산광역시,B12626004,동래구4(시티부동산 건너편),부산광역시 동래구 사직동,나,일반주거지역,387253.54,191054.5,35.20129824174832,129.05695565012596
EM,환경기준(수동),BS,부산광역시,B12626005,동래구5(종로엠스쿨 앞),부산광역시 동래구 사직동,나,일반주거지역,387429.95,190879.86,35.19969227919306,129.05885195340534
EM,환경기준(수동),BS,부산광역시,B12632001,북구1(포레나부산덕천 104동 앞),부산광역시 북구 덕천동,나,일반주거지역,383254.2,192239.12,35.212705959482406,129.01332869706465
EM,환경기준(수동),BS,부산광역시,B12632002,북구2(포레나부산덕천 203동 앞),부산광역시 북구 덕천동,나,일반주거지역,383515.47,192325.79,35.21343906113825,129.0162156033675
EM,환경기준(수동),BS,부산광역시,B12632003,북구3(포레나부산덕천 207동 앞),부산광역시 북구 덕천동,나,일반주거지역,383473.9,192357.13,35.21372896630107,129.01576633356603
EM,환경기준(수동),BS,부산광역시,B12632004,북구4(포레나부산덕천 204동 앞),부산광역시 북구 덕천동,나,일반주거지역,383628.75,192300.32,35.21318889419541,129.01745332371382
EM,환경기준(수동),BS,부산광역시,B12632005,북구5(포레나부산덕천 103동 앞),부산광역시 북구 덕천동,나,일반주거지역,383260.1,192188.52,35.2122491645,129.0133822176
EM,환경기준(수동),BS,부산광역시,B12635001,해운대구1(그랜드조선 뒤),부산광역시 해운대구 중동,다,상업지역,397164.31,186647.1,35.159706165379696,129.1646610867057
EM,환경기준(수동),BS,부산광역시,B12635002,해운대구2(파라다이스호텔 옆),부산광역시 해운대구 중동,다,상업지역,397261.95,186755.01,35.16065896324049,129.16575766962006
EM,환경기준(수동),BS,부산광역시,B12635003,해운대구3(파라다이스호텔 입구),부산광역시 해운대구 중동,다,상업지역,397111.55,186759.23,35.16072642276079,129.1641090429493
EM,환경기준(수동),BS,부산광역시,B12635004,해운대구4(그랜드조선 좌),부산광역시 해운대구 중동,다,상업지역,397047.49,186759.97,35.16074565490079,129.16340663541882
EM,환경기준(수동),BS,부산광역시,B12635005,해운대구5(그랜드조선 우),부산광역시 해운대구 중동,다,상업지역,396959.71,186671.23,35.159963496108375,129.16242280838048
EM,환경기준(수동),BS,부산광역시,B12644001,강서구1(협성휴포레),부산광역시 강서구 명지동,나,일반주거지역,192948,278941,35.107701,128.920568
EM,환경기준(수동),BS,부산광역시,B12644004,강서구4(더웨스턴),부산광역시 강서구 명지동,나,일반주거지역,192073,277796,35.0975054,128.9136191
EM,환경기준(수동),BS,부산광역시,B12671001,기장군 기장읍1(비둘기공원),부산광역시 기장군 기장읍 동부리,나,일반주거지역,219546,294591,35.2477155294397,129.2140470784685
EM,환경기준(수동),BS,부산광역시,B12671002,기장군 기장읍2(유한빌라 앞),부산광역시 기장군 기장읍 동부리,나,일반주거지역,219601,294556,35.246791027463594,129.21701449326488
EM,환경기준(수동),BS,부산광역시,B12671003,기장군 기장읍3(대진아파트 앞),부산광역시 기장군 기장읍 동부리,나,일반주거지역,219556,294482,35.24666630720525,129.21532840877157
EM,환경기준(수동),BS,부산광역시,B12671004,기장군 기장읍4(피자스쿨 기장점 앞),부산광역시 기장군 기장읍 동부리,나,일반주거지역,219733,294598,35.24767178752867,129.2180448074304
EM,환경기준(수동),BS,부산광역시,B12671005,기장군 기장읍5(동부카서비스 앞),부산광역시 기장군 기장읍 동부리,나,일반주거지역,219736,294357,35.24555295668544,129.21690235827384
EM,환경기준(수동),BS,부산광역시,B12671006,기장군 정관읍1(이진캐스빌),부산광역시 기장군 정관읍,나,일반주거지역,216425,303451,35.3229331,129.1729814
EM,환경기준(수동),BS,부산광역시,B12671007,기장군 정관읍2(동일스위트),부산광역시 기장군 정관읍,나,일반주거지역,215290,304315,35.3299094,129.1658454
EM,환경기준(수동),BS,부산광역시,B12671008,기장군 정관읍3(하늘애),부산광역시 기장군 정관읍,나,일반주거지역,216536,302466,35.3293378,129.1680262
RV,도로교통소음(이동),BS,부산광역시,F12611001,미라지오 앞,부산광역시 중구 신창동1가,,상업지역,385139.46,179715.53,35.09954963725485,129.0312181603656
RV,도로교통소음(이동),BS,부산광역시,F12614001,의성쌀상회 앞,부산광역시 서구 동대신동3가,,주거지역,383937.959,181671.529,35.117388998706396,129.01848277117435
RV,도로교통소음(이동),BS,부산광역시,F12623001,부산의료관광 안내센터 앞,부산광역시 부산진구 부전동,,상업지역,387382.94,186237.59,35.15776,129.0574
RV,도로교통소음(이동),BS,부산광역시,F12638001,㈜한국주철관 앞,부산광역시 사하구 신평동,,공업지역,379129.184,178314.252,35.08801101359202,128.96503731270857
RV,도로교통소음(이동),BS,부산광역시,F12647001,박형준 의원사무실 앞,부산광역시 연제구 연산동,,주거지역,391500.42,189646.75,35.1878182589,129.1032341043
RV,도로교통소음(이동),BS,부산광역시,F12653001,학장초등학교 정문 앞,부산광역시 사상구 학장동,,공업지역,380798.61,184768.91,35.1458583583,128.9847413848
EA,환경기준(자동),SU,서울특별시,A01117001,크라운호텔 앞,서울특별시 용산구 이태원동,가,전용주거지역,199200.58,447930.61,37.5308724261931,126.990955664546
EA,환경기준(자동),SU,서울특별시,A01123001,회기동,서울특별시 동대문구 회기동,가,종합병원지역,116188,555079,37.5915063845,127.0510320897
EA,환경기준(자동),SU,서울특별시,A01129001,성북초교,서울특별시 성북구 성북동,나,일반주거지역,199962,554841,37.5931964813,126.9995933207
EA,환경기준(자동),SU,서울특별시,A01129002,기업은행,서울특별시 성북구 종암동,나,준주거지역,114715,556017,37.5999361887,127.0342215212
EA,환경기준(자동),SU,서울특별시,A01138002,불광동,서울특별시 은평구 불광동,가,학교지역,193846,556864,37.6114190027,126.9303177222
EA,환경기준(자동),SU,서울특별시,A01141001,북아현동,서울특별시 서대문구 북아현동,나,일반주거지역,195481,550843,37.5570998655,126.9488589253
EA,환경기준(자동),SU,서울특별시,A01165001,반포본동,서울특별시 서초구 반포동,나,일반주거지역,198707,544536,37.500326659,126.985308316
EA,환경기준(자동),SU,서울특별시,A01168001,삼신빌딩,서울특별시 강남구 압구정동,나,일반주거지역,202508,547057,37.5228759306,127.028488267
EA,환경기준(자동),SU,서울특별시,A01168002,숙명여고 앞,서울특별시 강남구 도곡동,가,학교지역,204760,543426,37.4902659762,127.0535790343
EM,환경기준(수동),SU,서울특별시,A11111001,조계사 후문 앞,서울특별시 종로구 견지동,다,상업지역,21711,554619,37.5738811,126.981856
EM,환경기준(수동),SU,서울특별시,A11111002,광화문한의원,서울특별시 종로구 견지동,다,상업지역,21876,554611,37.5738453,126.9837238
EM,환경기준(수동),SU,서울특별시,A11111003,동산불교회관,서울특별시 종로구 견지동,다,상업지역,21720,554510,37.572908,126.9819921
EM,환경기준(수동),SU,서울특별시,A11111004,우정에쉐르,서울특별시 종로구 견지동,다,상업지역,21778,554476,37.5726108,126.9826487
EM,환경기준(수동),SU,서울특별시,A11111005,동덕빌딩 앞,서울특별시 종로구 견지동,다,상업지역,21840,554731,37.5749175,126.9832934
EM,환경기준(수동),SU,서울특별시,A11114001,자라 앞,서울특별시 중구 명동1가,다,상업지역,21974,553350,37.5625111,126.9851413
EM,환경기준(수동),SU,서울특별시,A11114002,명동 오다헤어,서울특별시 중구 명동1가,다,상업지역,21848,553356,37.5625379,126.9837152
EM,환경기준(수동),SU,서울특별시,A11114003,우리은행 앞(중구),서울특별시 중구 명동1가,다,상업지역,21938,553475,37.5636283,126.9847109
EM,환경기준(수동),SU,서울특별시,A11114004,중앙우체국 앞,서울특별시 중구 명동1가,다,상업지역,21708,553253,37.5615826,126.9821535
EM,환경기준(수동),SU,서울특별시,A11114005,명동밀리오레쇼핑몰 앞,서울특별시 중구 명동1가,다,상업지역,21913,553187,37.5610334,126.9844965
EM,환경기준(수동),SU,서울특별시,A11117004,크라운호텔 앞,서울특별시 용산구 이태원동,가,전용주거지역,22365,549924,37.5317338,126.9903975
EM,환경기준(수동),SU,서울특별시,A11117005,스타벅스 앞,서울특별시 용산구 이태원동,가,전용주거지역,22759,550200,37.5342929,126.994787
EM,환경기준(수동),SU,서울특별시,A11117006,백해영갤러리,서울특별시 용산구 이태원동,가,전용주거지역,22771,550444,37.5364913,126.9948547
EM,환경기준(수동),SU,서울특별시,A11117007,인도대사관저,서울특별시 용산구 이태원동,가,전용주거지역,22472,550542,37.53732,126.9914602
EM,환경기준(수동),SU,서울특별시,A11117008,주한벨기에대사관,서울특별시 용산구 이태원동,가,전용주거지역,23059,550412,37.5362662,126.9981245
EM,환경기준(수동),SU,서울특별시,A11120001,성수종로약국,서울특별시 성동구 성수동1가,다,준공업지역,28092,551519,37.5471833,127.0547721
EM,환경기준(수동),SU,서울특별시,A11120002,현대자동차 동부사업소앞,서울특별시 성동구 성수동1가,다,준공업지역,28431,551480,37.5468931,127.0586193
EM,환경기준(수동),SU,서울특별시,A11120003,우란문화재단,서울특별시 성동구 성수동1가,다,준공업지역,28051,551142,37.5437777,127.0543962
EM,환경기준(수동),SU,서울특별시,A11120004,제일빌딩,서울특별시 성동구 성수동1가,다,준공업지역,28144,551212,37.5444259,127.0554377
EM,환경기준(수동),SU,서울특별시,A11120005,대림창고 앞,서울특별시 성동구 성수동1가,다,준공업지역,28242,550899,37.5416233,127.0566238
EM,환경기준(수동),SU,서울특별시,A11123002,경희약국 앞,서울특별시 동대문구 회기동,가,종합병원지역,27905,556616,37.5930451,127.0514645
EM,환경기준(수동),SU,서울특별시,A11123003,연화사 앞,서울특별시 동대문구 회기동,가,종합병원지역,27836,556765,37.5943699,127.0506502
EM,환경기준(수동),SU,서울특별시,A11123004,로이드 앞,서울특별시 동대문구 회기동,가,종합병원지역,27989,556466,37.5917112,127.0524487
EM,환경기준(수동),SU,서울특별시,A11123005,경희대정문 옆,서울특별시 동대문구 회기동,가,종합병원지역,27841,556697,37.5937572,127.0507177
EM,환경기준(수동),SU,서울특별시,A11123006,경희아트빌라,서울특별시 동대문구 회기동,가,종합병원지역,27781,556621,37.5930637,127.0500605
EM,환경기준(수동),SU,서울특별시,A11129001,스웨덴대사관 앞,서울특별시 성북구 성북동,나,일반주거지역,23390,557104,37.5965876,127.0002507
EM,환경기준(수동),SU,서울특별시,A11129002,호주대사관저 앞,서울특별시 성북구 성북동,나,일반주거지역,23581,557121,37.5967768,127.0024135
EM,환경기준(수동),SU,서울특별시,A11129003,제일퍼크로크리닝앞,서울특별시 성북구 성북동,나,일반주거지역,23291,556917,37.5948847,126.9991751
EM,환경기준(수동),SU,서울특별시,A11129004,쌍다리기사식당 앞,서울특별시 성북구 성북동,나,일반주거지역,23022,556792,37.5937043,126.9961632
EM,환경기준(수동),SU,서울특별시,A11129005,작은갤러리,서울특별시 성북구 성북동,나,일반주거지역,23196,556683,37.5927584,126.9981674
EM,환경기준(수동),SU,서울특별시,A11129006,농협 맞은편,서울특별시 성북구 종암동,나,준주거지역,26053,557845,37.6037649,127.0302155
EM,환경기준(수동),SU,서울특별시,A11129007,종암교회 앞,서울특별시 성북구 종암동,나,준주거지역,26230,557422,37.5999893,127.0323203
EM,환경기준(수동),SU,서울특별시,A11129009,버거킹,서울특별시 성북구 종암동,나,준주거지역,26305,557533,37.6009981,127.0331474
EM,환경기준(수동),SU,서울특별시,A11129010,무판안경,서울특별시 성북구 종암동,나,준주거지역,26277,557706,37.6025569,127.0327857
EM,환경기준(수동),SU,서울특별시,A11129011,다이소 종암점 건너편,서울특별시 성북구 종암동,나,준주거지역,26378,557260,37.5985562,127.0340296
EM,환경기준(수동),SU,서울특별시,A11130001,왕의장어,서울특별시 강북구 우이동,가,녹지지역,24241,565147,37.6691704,127.0079571
EM,환경기준(수동),SU,서울특별시,A11130002,한일교,서울특별시 강북구 우이동,가,녹지지역,24457,564681,37.6650167,127.0105069
EM,환경기준(수동),SU,서울특별시,A11130004,온누리약국,서울특별시 강북구 우이동,가,녹지지역,24609,564450,37.6629624,127.012286
EM,환경기준(수동),SU,서울특별시,A11130005,그린파크 앞,서울특별시 강북구 우이동,가,녹지지역,24570,564584,37.6641607,127.0118102
EM,환경기준(수동),SU,서울특별시,A11130006,젊은느티나무,서울특별시 강북구 우이동,가,녹지지역,24285,565057,37.6683685,127.0084784
EM,환경기준(수동),SU,서울특별시,A11138001,영산어린이집 앞,서울특별시 은평구 불광동,가,학교지역,17371,559045,37.6128838,126.9316604
EM,환경기준(수동),SU,서울특별시,A11138002,한창주택 앞,서울특별시 은평구 불광동,가,학교지역,17121,559001,37.6124407,126.9288407
EM,환경기준(수동),SU,서울특별시,A11138003,불광초교후문 앞,서울특별시 은평구 불광동,가,학교지역,17339,559135,37.6136945,126.9312746
EM,환경기준(수동),SU,서울특별시,A11138004,기업은행 앞,서울특별시 은평구 불광동,가,학교지역,17193,558752,37.6102158,126.9297149
EM,환경기준(수동),SU,서울특별시,A11138005,LG베스트샵,서울특별시 은평구 불광동,가,학교지역,17242,558895,37.6115135,126.9302347
EM,환경기준(수동),SU,서울특별시,A11141002,한성어린이공원,서울특별시 서대문구 북아현동,나,일반주거지역,19322,553034,37.5591515,126.9552177
EM,환경기준(수동),SU,서울특별시,A11141003,북성초교 옆,서울특별시 서대문구 북아현동,나,일반주거지역,19022,553093,37.5596186,126.9518107
EM,환경기준(수동),SU,서울특별시,A11141004,우리은행 앞(서대문구),서울특별시 서대문구 북아현동,나,일반주거지역,19447,552871,37.5577015,126.9566785
EM,환경기준(수동),SU,서울특별시,A11141005,아현감리교회 앞,서울특별시 서대문구 북아현동,나,일반주거지역,19633,552866,37.5576932,126.9587836
EM,환경기준(수동),SU,서울특별시,A11141006,미광자동차공업사,서울특별시 서대문구 북아현동,나,일반주거지역,19476,553208,37.5607469,126.9569257
EM,환경기준(수동),SU,서울특별시,A11153002,신도테크,서울특별시 구로구 신도림동,다,준공업지역,12322,547753,37.5101984,126.8773981
EM,환경기준(수동),SU,서울특별시,A11153004,국민은행 앞,서울특별시 구로구 신도림동,다,준공업지역,12508,547018,37.5036235,126.8796935
EM,환경기준(수동),SU,서울특별시,A11153006,롯데슈퍼 신도림점,서울특별시 구로구 신도림동,다,준공업지역,12694,547643,37.5092838,126.8816297
EM,환경기준(수동),SU,서울특별시,A11153007,신도림우성5차아파트501동앞,서울특별시 구로구 신도림동,다,준공업지역,12863,548044,37.5129256,126.8834449
EM,환경기준(수동),SU,서울특별시,A11153008,공구상가일번지관리단,서울특별시 구로구 신도림동,다,준공업지역,12356,546683,37.5005765,126.8780587
EM,환경기준(수동),SU,서울특별시,A11156001,중앙빌딩 앞,서울특별시 영등포구 여의도동,다,상업지역,16921,548822,37.520747,126.9291219
EM,환경기준(수동),SU,서울특별시,A11156002,수정상가 뒤,서울특별시 영등포구 여의도동,다,상업지역,17108,549018,37.5225503,126.931179
EM,환경기준(수동),SU,서울특별시,A11156003,한양아파트A동 옆,서울특별시 영등포구 여의도동,다,상업지역,17221,548969,37.5221276,126.932469
EM,환경기준(수동),SU,서울특별시,A11156004,KBS2 앞,서울특별시 영등포구 여의도동,다,상업지역,16941,548593,37.5186929,126.9293953
EM,환경기준(수동),SU,서울특별시,A11156005,시티뱅크 앞,서울특별시 영등포구 여의도동,다,상업지역,17019,548672,37.5194143,126.9302656
EM,환경기준(수동),SU,서울특별시,A11165007,신반포중 앞,서울특별시 서초구 반포동,나,일반주거지역,22809,547085,37.5062539,126.9961014
EM,환경기준(수동),SU,서울특별시,A11165008,서래파출소,서울특별시 서초구 반포동,나,일반주거지역,22817,546568,37.5016048,126.9963166
EM,환경기준(수동),SU,서울특별시,A11165009,세화여중 앞,서울특별시 서초구 반포동,나,일반주거지역,22632,546614,37.5019831,126.994213
EM,환경기준(수동),SU,서울특별시,A11165010,원펜타스 102동 앞,서울특별시 서초구 반포동,나,일반주거지역,22596,546864,37.5042266,126.9937491
EM,환경기준(수동),SU,서울특별시,A11165011,반포퍼스티지 101동 옆,서울특별시 서초구 반포동,나,일반주거지역,22786,546654,37.5023706,126.9959433
EM,환경기준(수동),SU,서울특별시,A11168001,렉슬(아)306동 뒤,서울특별시 강남구 대치동,가,학교지역,27522,545646,37.4941888,127.0497135
EM,환경기준(수동),SU,서울특별시,A11168002,대치1동주민센터,서울특별시 강남구 대치동,가,학교지역,28143,545527,37.4932306,127.0567577
EM,환경기준(수동),SU,서울특별시,A11168003,중대부고 앞,서울특별시 강남구 대치동,가,학교지역,27780,545407,37.4920882,127.0526748
EM,환경기준(수동),SU,서울특별시,A11168004,숙명여고 앞,서울특별시 강남구 대치동,가,학교지역,27771,545337,37.4914575,127.0525952
EM,환경기준(수동),SU,서울특별시,A11168005,대도초등학교 앞,서울특별시 강남구 대치동,가,학교지역,27840,545421,37.492223,127.0533534
EM,환경기준(수동),SU,서울특별시,A11168006,압구정초등학교 후문,서울특별시 강남구 압구정동,나,일반주거지역,25939,549847,37.5317216,127.0308213
EM,환경기준(수동),SU,서울특별시,A11168007,금강쇼핑 앞,서울특별시 강남구 압구정동,나,일반주거지역,25799,549827,37.5315147,127.0292486
EM,환경기준(수동),SU,서울특별시,A11168008,제일은행 앞,서울특별시 강남구 압구정동,나,일반주거지역,25795,549939,37.5325239,127.0291698
EM,환경기준(수동),SU,서울특별시,A11168009,원방프라자,서울특별시 강남구 압구정동,나,일반주거지역,25726,548920,37.5233338,127.0286347
EM,환경기준(수동),SU,서울특별시,A11168010,하나은행,서울특별시 강남구 압구정동,나,일반주거지역,25736,549311,37.5268567,127.0286586
EM,환경기준(수동),SU,서울특별시,B11111001,정민온누리약국 앞,서울특별시 종로구 연건동,가,종합병원지역,199959.081,453269.163,37.58171351225703,127.00030706717536
EM,환경기준(수동),SU,서울특별시,B11111002,병원 시계탑 건물 앞,서울특별시 종로구 연건동,가,종합병원지역,199835.082,452989.165,37.57919073234642,126.99890337830553
EM,환경기준(수동),SU,서울특별시,B11111003,간호사 기숙사 옆,서울특별시 종로구 연건동,가,종합병원지역,199968.582,452865.164,37.5780735385964,127.00041475191597
EM,환경기준(수동),SU,서울특별시,B11111004,히포크라테스 동상 옆,서울특별시 종로구 연건동,가,종합병원지역,200092.08,453138.164,37.58053325292277,127.0018127938444
EM,환경기준(수동),SU,서울특별시,B11111005,치의학 대학원 조형물 앞,서울특별시 종로구 연건동,가,종합병원지역,199674.08,452845.17,37.57789324750924,126.99708083523029
EM,환경기준(수동),SU,서울특별시,B11126001,중앙마트문구 앞,서울특별시 중랑구 면목동,나,일반주거지역,207503.035,453596.161,37.58463069557164,127.08571700283565
EM,환경기준(수동),SU,서울특별시,B11126002,나윤빌라 3차 앞,서울특별시 중랑구 면목동,나,일반주거지역,207879.033,453876.159,37.58715036545434,127.08997685277001
EM,환경기준(수동),SU,서울특별시,B11126003,면목성당 앞,서울특별시 중랑구 면목동,나,일반주거지역,207965.033,453626.161,37.58489719842784,127.09094789230488
EM,환경기준(수동),SU,서울특별시,B11126004,면목본동 주민센터 앞,서울특별시 중랑구 면목동,나,일반주거지역,207689.03,453890.16,37.58727807113419,127.08782582670108
EM,환경기준(수동),SU,서울특별시,B11126005,박가네명동빈대떡 앞,서울특별시 중랑구 면목동,나,일반주거지역,207589.04,453977.16,37.58806273410879,127.08669451334607
EM,환경기준(수동),SU,서울특별시,B11130001,현대아트빌라 앞,서울특별시 강북구 미아동,나,일반주거지역,201982.068,458307.132,37.627102999251115,127.02322208400197
EM,환경기준(수동),SU,서울특별시,B11130002,미아3동 성당주차장,서울특별시 강북구 미아동,나,일반주거지역,458.03,201.98,37.624597769,127.023199114
EM,환경기준(수동),SU,서울특별시,B11130003,현대빌라 앞,서울특별시 강북구 미아동,나,일반주거지역,202117.07,457780.14,37.62235459639515,127.0247499763676
EM,환경기준(수동),SU,서울특별시,B11130004,경희황소한방병원 앞,서울특별시 강북구 미아동,나,일반주거지역,202270.07,458068.13,37.624949067942445,127.02648387525447
EM,환경기준(수동),SU,서울특별시,B11130005,보드람 치킨 앞,서울특별시 강북구 미아동,나,일반주거지역,201966.07,458116.13,37.6253821723155,127.02304037003871
EM,환경기준(수동),SU,서울특별시,B11135001,"312동, 314동 사이",서울특별시 노원구 상계동,나,일반주거지역,205086.549,461114.615,37.652386459489065,127.05840874173411
EM,환경기준(수동),SU,서울특별시,B11135002,509동 뒤,서울특별시 노원구 상계동,나,일반주거지역,205598.046,461213.114,37.65327104364536,127.06420571327621
EM,환경기준(수동),SU,서울특별시,B11135003,215동 굴뚝 옆,서울특별시 노원구 상계동,나,일반주거지역,460.87,205.12,37.6501738718,127.05878707
EM,환경기준(수동),SU,서울특별시,B11135004,501동 앞 도로,서울특별시 노원구 상계동,나,일반주거지역,205526.046,461068.115,37.65196505979117,127.06338875233912
EM,환경기준(수동),SU,서울특별시,B11135005,308동앞 14번 가로등 밑,서울특별시 노원구 상계동,나,일반주거지역,205145.05,460958.12,37.65097612877382,127.05907059314089
EM,환경기준(수동),SU,서울특별시,B11144001,서교어린이공원,서울특별시 마포구 서교동,나,일반주거지역,192467.13,449961.18,37.55187672259324,126.91552391516144
EM,환경기준(수동),SU,서울특별시,B11144002,서현교회 앞,서울특별시 마포구 서교동,나,일반주거지역,192497.126,450077.183,37.552922114161255,126.91586219734572
EM,환경기준(수동),SU,서울특별시,B11144003,신양빌딩 앞,서울특별시 마포구 서교동,나,일반주거지역,192381.13,450119.18,37.55329955971922,126.91454901251882
EM,환경기준(수동),SU,서울특별시,B11144004,패스트파이브건물 앞,서울특별시 마포구 서교동,나,일반주거지역,192679.13,450064.18,37.55280649226321,126.91792202138892
EM,환경기준(수동),SU,서울특별시,B11144005,우리은행 주차장입구,서울특별시 마포구 서교동,나,일반주거지역,192677.63,450043.68,37.55262176557678,126.91790522591195
EM,환경기준(수동),SU,서울특별시,B11147001,129동 앞 놀이터,서울특별시 양천구 목동,나,일반주거지역,189383.645,448574.692,37.53935361055119,126.88064954803303
EM,환경기준(수동),SU,서울특별시,B11147002,120동 앞 국기게양대 앞,서울특별시 양천구 목동,나,일반주거지역,189155.646,448712.691,37.540594271125265,126.8780677209878
EM,환경기준(수동),SU,서울특별시,B11147003,206동 뒤,서울특별시 양천구 목동,나,일반주거지역,188952.148,448283.193,37.5367220809123,126.87577170943608
EM,환경기준(수동),SU,서울특별시,B11147004,하나은행 건너편,서울특별시 양천구 목동,나,일반주거지역,189049.147,448207.694,37.536043014792355,126.87687033977663
EM,환경기준(수동),SU,서울특별시,B11147005,"109동, 111동 옆 도로",서울특별시 양천구 목동,나,일반주거지역,448.45,189.23,37.5382205292,126.878914983
EM,환경기준(수동),SU,서울특별시,B11150001,푸른들 청소년도서관 앞,서울특별시 강서구 화곡동,나,일반주거지역,185352.17,449176.19,37.544716992810045,126.83502221000516
EM,환경기준(수동),SU,서울특별시,B11150002,CU 화곡소비자점앞,서울특별시 강서구 화곡동,나,일반주거지역,185200.67,448917.19,37.54238099739973,126.83331317989813
EM,환경기준(수동),SU,서울특별시,B11150003,반석교회 옆,서울특별시 강서구 화곡동,나,일반주거지역,185432.67,448939.69,37.54258745845287,126.835937881753
EM,환경기준(수동),SU,서울특별시,B11150004,로이빌딩 앞,서울특별시 강서구 화곡동,나,준주거지역,185378.17,448699.19,37.540419722503586,126.83532602498592
EM,환경기준(수동),SU,서울특별시,B11150005,화곡가구광장,서울특별시 강서구 화곡동,나,일반주거지역,185561.17,449144.69,37.5444365226,126.8373877752
EM,환경기준(수동),SU,서울특별시,B11154001,진도3차 관리사무소앞,서울특별시 금천구 독산동,다,준공업지역,190478.138,440725.24,37.46864252203322,126.89313707627471
EM,환경기준(수동),SU,서울특별시,B11154002,E-STAR PAEK 오피스텔 앞,서울특별시 금천구 독산동,다,준공업지역,190444.14,441024.24,37.471336144024946,126.892748786623
EM,환경기준(수동),SU,서울특별시,B11154003,대동테크노빌 앞,서울특별시 금천구 독산동,다,준공업지역,190208.14,440779.24,37.46912619156311,126.8900842536489
EM,환경기준(수동),SU,서울특별시,B11154004,솔리브오피스텔,서울특별시 금천구 독산동,다,준공업지역,190252.14,440915.74,37.47035652095347,126.8905797911099
EM,환경기준(수동),SU,서울특별시,B11154005,카세파 정비공장 앞,서울특별시 금천구 독산동,다,준공업지역,190592.64,440502.74,37.466639002085756,126.89443427690755
EM,환경기준(수동),SU,서울특별시,B11156001,KB영등포 타워 앞,서울특별시 영등포구 영등포동,나,준주거지역,191398.63,446385.21,37.51964790074763,126.90347488420409
EM,환경기준(수동),SU,서울특별시,B11156002,맥스 모텔 앞,서울특별시 영등포구 영등포동,나,준주거지역,191579.13,446545.21,37.52109118299513,126.90551478341955
EM,환경기준(수동),SU,서울특별시,B11156003,성남빌딩 옆,서울특별시 영등포구 영등포동,다,상업지역,191696.131,446298.206,37.51886682575858,126.90684113545906
EM,환경기준(수동),SU,서울특별시,B11156004,NH농협은행 앞,서울특별시 영등포구 영등포동,다,상업지역,191534.63,446471.21,37.52042403421875,126.90501226988191
EM,환경기준(수동),SU,서울특별시,B11156005,여의도포레스트시티 앞,서울특별시 영등포구 영등포동,다,상업지역,191746.13,446348.71,37.51932227922822,126.90740614177068
EM,환경기준(수동),SU,서울특별시,B11159001,오크빌 앞,서울특별시 동작구 상도동,나,일반주거지역,193775.12,443678.22,37.495277628192106,126.93038086724624
EM,환경기준(수동),SU,서울특별시,B11159002,빙수골 공용주차장,서울특별시 동작구 상도동,나,일반주거지역,193894.12,443708.22,37.49554875474698,126.93172626046079
EM,환경기준(수동),SU,서울특별시,B11159003,청운보육원 앞,서울특별시 동작구 상도동,나,일반주거지역,194071.12,443774.22,37.49614459628087,126.93372725741126
EM,환경기준(수동),SU,서울특별시,B11159004,자주 신대방 삼거리점 앞,서울특별시 동작구 상도동,나,일반주거지역,193846.12,444199.22,37.499972299591285,126.93117924225847
EM,환경기준(수동),SU,서울특별시,B11159005,디앤씨타워 옆,서울특별시 동작구 상도동,나,일반주거지역,193565.12,443944.22,37.497672802990394,126.92800376957048
EM,환경기준(수동),SU,서울특별시,B11162001,아진하우스 앞,서울특별시 관악구 신림동,나,일반주거지역,194207.12,440806.24,37.46940396079787,126.93528925523533
EM,환경기준(수동),SU,서울특별시,B11162002,모던하우스 앞,서울특별시 관악구 신림동,나,일반주거지역,194299.115,440611.239,37.46764759557359,126.93633079941276
EM,환경기준(수동),SU,서울특별시,B11162003,그린하우스 앞,서울특별시 관악구 신림동,나,일반주거지역,194416.11,440609.24,37.46763032354298,126.93765337210154
EM,환경기준(수동),SU,서울특별시,B11162004,대학동주민센터 앞,서울특별시 관악구 신림동,나,일반주거지역,440.94,194.35,37.470602668,126.93690507
EM,환경기준(수동),SU,서울특별시,B11162005,가람스터디빌딩 앞,서울특별시 관악구 신림동,나,일반주거지역,194051.12,441053.24,37.471628417643565,126.93352375429191
EM,환경기준(수동),SU,서울특별시,B11165001,한신아파트 347동 옆,서울특별시 서초구 반포동,가,학교지역,200778.08,445675.21,37.51329251401893,127.00957296212042
EM,환경기준(수동),SU,서울특별시,B11165002,한신 8차 노인정 앞,서울특별시 서초구 반포동,가,학교지역,200990.57,445437.71,37.51115250130386,127.01197624950125
EM,환경기준(수동),SU,서울특별시,B11165003,신반포자이 102동 옆,서울특별시 서초구 반포동,가,학교지역,200668.076,445340.712,37.51027876536785,127.00832855519418
EM,환경기준(수동),SU,서울특별시,B11165004,경원중학교 후문 앞,서울특별시 서초구 반포동,가,학교지역,200718.076,445483.211,37.51156265103886,127.00889417957895
EM,환경기준(수동),SU,서울특별시,B11165005,경원중학교 정문 앞,서울특별시 서초구 반포동,가,학교지역,200829.08,445392.21,37.5107426764,127.0101495689
EM,환경기준(수동),SU,서울특별시,B11168001,국립 어린이청소년도서관,서울특별시 강남구 역삼동,나,일반주거지역,202531.06,444273.22,37.500657830136134,127.02939632937967
EM,환경기준(수동),SU,서울특별시,B11168002,국기원 후문,서울특별시 강남구 역삼동,가,전용주거지역,202578.064,444501.219,37.50271198509333,127.02992858597776
EM,환경기준(수동),SU,서울특별시,B11168003,역삼빌딩 앞,서울특별시 강남구 역삼동,가,전용주거지역,202478.063,444365.217,37.501486866930165,127.02879722862723
EM,환경기준(수동),SU,서울특별시,B11168004,에스코빌딩 앞,서울특별시 강남구 역삼동,다,상업지역,202700.06,444901.22,37.506315658014735,127.03130968006693
EM,환경기준(수동),SU,서울특별시,B11168005,CGV 강남 옆,서울특별시 강남구 역삼동,나,일반주거지역,202288.07,444405.22,37.5018477276851,127.02664864542012
EM,환경기준(수동),SU,서울특별시,B11171001,올림픽경륜장 옆,서울특별시 송파구 방이동,가,녹지지역,210803.02,446000.21,37.5161598841,127.122968324
EM,환경기준(수동),SU,서울특별시,B11171002,수영장 앞,서울특별시 송파구 방이동,가,녹지지역,211122.013,446459.205,37.52029170205562,127.12658343267749
EM,환경기준(수동),SU,서울특별시,B11171003,음악분수대 앞,서울특별시 송파구 방이동,가,녹지지역,210275.986,446180.264,37.51778809889907,127.11700942754315
